I_D	FLAG_TSUNAMI	YEAR	MONTH	DAY	HOUR	MINUTE	SECOND	FOCAL_DEPTH	EQ_PRIMARY	EQ_MAG_MW	EQ_MAG_MS	EQ_MAG_MB	EQ_MAG_ML	EQ_MAG_MFA	EQ_MAG_UNK	INTENSITY	COUNTRY	STATE	LOCATION_NAME	LATITUDE	LONGITUDE	REGION_CODE	DEATHS	DEATHS_DESCRIPTION	MISSING	MISSING_DESCRIPTION	INJURIES	INJURIES_DESCRIPTION	DAMAGE_MILLIONS_DOLLARS	DAMAGE_DESCRIPTION	HOUSES_DESTROYED	HOUSES_DESTROYED_DESCRIPTION	HOUSES_DAMAGED	HOUSES_DAMAGED_DESCRIPTION	TOTAL_DEATHS	TOTAL_DEATHS_DESCRIPTION	TOTAL_MISSING	TOTAL_MISSING_DESCRIPTION	TOTAL_INJURIES	TOTAL_INJURIES_DESCRIPTION	TOTAL_DAMAGE_MILLIONS_DOLLARS	TOTAL_DAMAGE_DESCRIPTION	TOTAL_HOUSES_DESTROYED	TOTAL_HOUSES_DESTROYED_DESCRIPTION	TOTAL_HOUSES_DAMAGED	TOTAL_HOUSES_DAMAGED_DESCRIPTION
7614	0	2007	8	17	0	38	56	0	1.6	0	0	0	1.6	0	0	0	USA	UT	UTAH	39.464	-111.207	150	3	1	0	0	6	1	0	0	0	0	0	0	3	1	0	0	6	1	0	0	0	0	0	0
10036	0	2013	4	18	0	50	38.5	0	2.1	0	0	2.1	0	0	0	0	USA	0	TEXAS:  WEST	31.817	-97.088	150	14	1	0	0	200	3	100	4	50	1	0	0	14	1	0	0	200	3	100	4	50	1	0	0
10330	0	2018	5	3	11	17	0	0	2.1	0	0	0	2.1	0	0	0	SOUTH AFRICA	0	SOUTH AFRICA:  WEST RAND	-26.4	27.5	10	7	1	0	0	6	1	0	0	0	0	0	0	7	1	0	0	6	1	0	0	0	0	0	0
5754	0	2004	1	10	7	43	18	5	2.2	0	0	0	2.2	0	0	0	SLOVAKIA	0	SLOVAKIA:  SLOVENSKO L'UPCA	48.758	19.217	110	0	0	0	0	0	0	0	1	0	0	0	0	0	0	0	0	0	0	0	1	0	0	0	0
9832	0	2011	2	17	22	47	21.5	1	3.1	0	0	0	3.1	0	0	0	USA	0	COLORADO:  PAONIA	38.947	-107.497	150	0	0	0	0	0	0	0	1	0	0	0	0	0	0	0	0	0	0	0	1	0	0	0	0
8535	0	2009	9	22	8	20	41	0	3.1	0	0	0	3.1	0	0	0	AUSTRALIA	0	AUSTRALIA:  MORNINGTON	-38.28	145.25	170	0	0	0	0	0	0	0	1	0	0	0	0	0	0	0	0	0	0	0	1	0	0	0	0
10411	0	2019	5	22	3	48	59	10	3.2	0	0	0	3.2	0	0	0	NETHERLANDS	0	THE NETHERLANDS: GRONINGEN	53.394	6.586	0	0	0	0	0	0	0	0	2	0	0	840	3	0	0	0	0	0	0	0	2	0	0	840	3
9996	Tsu	1703	7	2	0	0	0	0	3.2	0	3.2	0	0	0	0	4	ITALY	0	"ITALY:  GENOA, CARMAGNOLE"	44.4	8.917	130	0	0	0	0	0	0	0	0	0	0	0	0	0	0	0	0	0	0	0	0	0	0	0	0
5514	0	1999	2	1	23	57	52.9	33	3.2	0	0	3.2	0	0	0	3	RUSSIA	0	"RUSSIA:  MAKHACHKALA, DAGESTAN"	42.962	46.954	40	0	0	0	0	0	0	0.9	1	0	0	0	0	0	0	0	0	0	0	0.9	1	0	0	0	0
10317	0	2017	6	21	4	40	0	0	3.2	0	0	0	0	0	3.2	0	NEPAL	0	NEPAL:  DHADING	27.64	85.17	60	1	1	0	0	1	1	0	0	0	0	0	0	1	1	0	0	1	1	0	0	0	0	0	0
10293	0	2018	1	8	0	0	0	0	3.4	0	0	0	0	0	3.4	0	NETHERLANDS	0	THE NETHERLANDS: GRONINGEN	53.2	6.6	120	0	0	0	0	0	0	0	2	0	0	0	4	0	0	0	0	0	0	0	2	0	0	0	4
10390	0	2019	1	22	22	35	31	10	3.4	0	0	0	3.4	0	0	0	POLAND	0	POLAND:  RYDULTOWY	50.08	18.39	120	1	1	0	0	8	1	0	0	0	0	0	0	1	1	0	0	8	1	0	0	0	0	0	0
8492	0	2009	8	8	13	26	17.5	10	3.4	0	0	3.4	0	0	0	0	CHINA	0	CHINA:  CHONGQING PROVINCE:  RONGCHANG	29.358	105.438	30	2	1	0	0	1	1	0	2	440	3	440	3	2	1	0	0	1	1	0	2	440	3	0	0
4641	0	1973	8	18	22	38	29	0	3.5	0	0	0	0	0	3.5	6	ITALY	0	ITALY:  SICILY	37.66	15.167	130	0	0	0	0	0	0	0.5	1	0	0	0	0	0	0	0	0	0	0	0	0	0	0	0	0
9887	0	2011	10	29	0	43	55.1	10	3.5	0	0	0	3.5	0	0	0	INDIA	0	INDIA:  SIKKIM	27.449	88.684	60	2	1	0	0	0	0	0	0	0	0	0	0	2	1	0	0	0	0	0	0	0	0	0	0
7221	0	1982	3	28	4	16	52.5	9	3.5	0	3.5	0	0	0	0	0	MEXICO	0	MEXICO:  CHIAPAS	17.25	-93.21	150	10	1	0	0	200	3	0	1	0	0	0	0	1879	4	1755	4	0	0	3.3	2	0	0	0	0
8792	0	2009	12	6	21	51	59.8	2	3.5	0	0	0	3.5	0	0	0	SOUTH AFRICA	0	SOUTH AFRICA:  CARLETONVILLE	-26.414	27.494	10	2	1	0	0	3	1	0	0	0	0	0	0	2	1	0	0	3	1	0	0	0	0	0	0
10099	0	2014	5	17	16	46	4	5	3.6	3.6	0	0	0	0	0	4	GERMANY	0	GERMANY:  HESSE	49.799	8.69	120	0	0	0	0	0	0	1.36	2	0	0	70	2	0	0	0	0	0	0	1.36	2	0	0	70	2
10126	0	2015	2	21	21	21	8	7	3.6	0	0	0	3.6	0	0	0	BOSNIA-HERZEGOVINA	0	BALKANS NW:  BOSNIA-HERZEGOVINA:	44.534	18.934	130	4	1	0	0	1	1	0	0	0	0	0	0	4	1	0	0	1	1	0	0	0	0	0	0
9826	0	2010	12	19	5	5	30	5	3.7	0	3.7	0	0	0	0	0	USA	OK	OKLAHOMA:  LUTHER	35.827	-96.772	150	0	0	0	0	0	0	0	1	0	0	0	1	0	0	0	0	0	0	0	1	0	0	0	1
6483	Tsu	1992	1	5	6	0	0	8	3.7	0	3.7	0	0	0	0	0	CHINA	0	CHINA:  S. CHINA SEA	18	108	30	0	0	0	0	0	0	0	0	0	0	0	0	0	0	0	0	0	0	0	1	0	0	0	0
10387	0	2019	1	12	8	58	27	2	3.8	0	0	0	3.8	0	0	0	POLAND	0	POLAND:  RUDNA	51.52	16.09	120	1	1	0	0	6	1	0	2	0	0	0	0	1	1	0	0	6	1	0	2	0	0	0	0
5275	0	1991	2	13	15	49	38.9	5	3.8	0	0	0	3.8	0	0	0	FRANCE	0	FRANCE	44.885	6.76	120	9	1	0	0	0	0	0	1	0	0	0	0	9	1	0	0	0	0	0	1	0	0	0	0
8126	0	2008	6	6	21	16	33.8	11	3.8	0	0	3.8	0	0	0	0	INDIA	0	INDIA:  MANPUR	24.702	84.964	60	0	0	0	0	2	1	0	1	0	0	0	0	0	0	0	0	2	1	0	1	0	0	0	0
7407	0	2006	6	3	16	34	25.8	10	3.8	0	0	3.8	0	0	0	0	MALAWI	0	MALAWI:  SALIMA	-14.52	34.28	10	0	0	0	0	0	0	0	1	0	0	0	0	0	0	0	0	0	0	0	1	0	0	0	0
7421	0	2006	12	8	16	48	39.1	5	3.9	0	0	0	3.9	0	0	0	SWITZERLAND	0	SWITZERLAND:  BASEL	47.58	7.6	120	0	0	0	0	0	0	0	1	0	0	0	0	0	0	0	0	0	0	0	1	0	0	0	0
10314	0	2014	7	15	9	8	56	5	3.9	3.9	0	0	0	0	0	5	USA	OK	OKLAHOMA:  HARRAH	35.524	-97.146	150	0	0	0	0	0	0	0	2	0	0	0	2	0	0	0	0	0	0	0	2	0	0	0	2
2346	0	1885	5	1	0	0	    	3	4	0	0	0	0	0	4	7	RUSSIA	0	RUSSIA:  CAUCASUS	41.9	47.8	40	0	0	0	0	0	0	0	2	0	0	0	0	0	0	0	0	0	0	0	0	0	0	0	0
5793	0	2004	7	30	7	14	7.8	5	4	0	4	4.8	0	0	0	0	TURKEY	0	TURKEY:  DOGUBEYAZIT	39.634	43.966	140	1	1	0	0	5	1	0	1	0	0	0	0	1	1	0	0	5	1	0	1	0	0	0	2
4884	0	1980	7	12	5	32	8.6	10	4	0	0	4	3.6	0	0	0	GREECE	0	GREECE:  VOLOS	39.203	22.729	130	1	1	0	0	0	0	5	2	0	0	0	0	0	0	0	0	0	0	0	0	0	0	0	0
5698	0	2003	6	6	12	29	34	3	4	4	0	3.9	0	0	0	6	USA	KY	KENTUCKY:  BARDWELL	36.87	-88.98	150	0	0	0	0	0	0	0	1	0	0	0	0	0	0	0	0	0	0	0	1	0	0	0	0
10289	0	2017	12	27	21	24	33	10	4	0	0	4	0	0	0	0	IRAN	0	"IRAN: ALBORZ, TEHRAN"	35.692	50.9	140	1	1	0	0	57	2	0	0	0	0	0	0	1	1	0	0	57	2	0	0	0	0	0	0
4934	0	1981	12	12	20	26	46.9	33	4	0	4	4.6	0	0	0	0	PAKISTAN	0	PAKISTAN:  CENTRAL	29.856	66.962	60	6	1	0	0	12	1	0	2	45	1	45	1	6	1	0	0	12	1	0	2	45	1	0	0
9888	0	2011	10	29	13	50	49	3	4	0	0	4	4	0	0	0	ECUADOR	0	ECUADOR:  POMASQUI	-0.13	-78.37	160	0	0	0	0	0	0	0	1	0	0	0	2	0	0	0	0	0	0	0	1	0	0	0	2
5261	0	1990	10	18	9	30	44.4	5	4	0	0	4	0	0	0	0	SOUTH AFRICA	0	SOUTH AFRICA:  CHARLETONVILLE	-26.39	27.349	10	10	1	0	0	6	1	0	0	0	0	0	0	10	1	0	0	6	1	0	0	0	0	0	0
10331	0	2018	5	5	8	58	7	10	4.1	0	0	4.1	0	0	0	0	POLAND	0	POLAND:  SILESIAN:  JASTRZEBIE-ZDROJ	50.11	18.71	120	5	1	0	0	2	1	0	1	0	0	0	0	5	1	0	0	2	1	0	1	0	0	0	0
8208	0	2008	11	22	22	27	55.1	0	4.1	0	0	0	4.1	0	0	0	CZECH REPUBLIC	0	CZECH REPUBLIC:  KARVINA	49.914	18.455	110	2	1	0	0	3	1	0	1	0	0	0	0	2	1	0	0	3	1	0	1	0	0	0	0
7451	0	2006	12	31	13	39	23.6	5	4.1	0	0	0	4.1	0	0	0	HUNGARY	0	HUNGARY:  BUDAPEST	47.449	19.343	110	0	0	0	0	0	0	0	1	0	1	0	0	0	0	0	0	0	0	0	1	0	1	0	0
7507	Tsu	1784	1	7	0	0	0	0	4.1	0	4.1	0	0	0	0	6	ITALY	0	ITALY:  IONIAN CALABRIA	38.317	16.4	130	0	0	0	0	0	0	0	0	0	0	0	0	0	0	0	0	0	0	0	0	0	0	0	0
7508	Tsu	1784	1	19	0	0	0	0	4.1	0	4.1	0	0	0	0	6	ITALY	0	ITALY:  MESSINA STRAITS	38.167	15.633	130	0	0	0	0	0	0	0	0	0	0	0	0	0	0	0	0	0	0	0	0	0	0	0	0
5558	0	2000	5	7	23	10	54.1	5	4.1	0	4.1	4.5	0	0	0	0	TURKEY	0	"TURKEY:  DOGANYOL, PUTURGE"	38.164	38.777	140	0	0	0	0	0	0	0	2	0	0	0	0	0	0	0	0	1	1	0	2	0	0	200	3
7247	0	2006	6	3	11	7	45	10	4.1	0	0	4.1	0	0	0	0	TURKEY	0	TURKEY:  HAKKARI	37.605	43.787	140	0	0	0	0	0	0	0	1	0	0	0	0	0	0	0	0	0	0	0	1	0	0	0	0
8176	0	2008	9	3	2	22	47	6	4.1	0	4.1	4.6	5.1	0	0	0	TURKEY	0	TURKEY:  ADIYAMAN	37.507	38.503	140	0	0	0	0	0	0	0	1	0	0	0	0	0	0	0	0	0	0	0	1	0	0	0	0
3854	0	1947	7	10	15	0	    	9	4.1	0	0	0	0	0	4.1	7	IRAN	0	IRAN:  SHIRVAN	37.5	57.8	140	0	0	0	0	0	0	0	2	0	0	0	0	0	0	0	0	0	0	0	0	0	0	0	0
5106	0	1986	8	3	1	33	20.3	12	4.1	0	4.1	5	0	0	0	0	TURKEY	0	"TURKEY:  YESILCE,  UCGOZE, SAM"	37.2	37.3	140	0	0	0	0	0	0	0	1	73	2	0	0	0	0	0	0	0	0	0	1	73	2	0	0
5281	0	1991	4	20	17	8	20.2	33	4.1	0	0	4.1	0	0	0	0	AFGHANISTAN	0	"AFGHANISTAN:  HINDU KUSH:  BADAKHSTAN, KABUL"	36.416	70.912	40	0	0	0	0	0	0	0	1	0	0	100	2	0	0	0	0	0	0	0	1	0	0	100	2
10309	0	2014	2	9	2	16	49	5	4.1	4.1	0	0	0	0	0	4	USA	OK	OKLAHOMA:  GUTHRIE	35.937	-97.271	150	0	0	0	0	0	0	0	1	0	0	0	0	0	0	0	0	0	0	0	1	0	0	0	0
7243	0	2006	5	7	6	20	53.7	14	4.1	0	4.1	4.8	0	0	0	0	IRAN	0	IRAN:  ZARAND	30.79	56.7	140	0	0	0	0	70	2	0	1	0	1	0	1	0	0	0	0	70	2	0	1	0	2	0	0
8298	0	2009	3	26	4	44	11.6	10	4.1	0	0	4.1	0	0	0	0	INDIA	0	INDIA:  CHAIBASA	22.399	85.903	60	0	0	0	0	5	1	0	1	0	0	0	0	0	0	0	0	5	1	0	1	0	0	0	1
10391	0	2019	2	1	0	0	0	0	4.1	0	0	0	0	0	4.1	0	INDIA	0	INDIA:  MAHARASHTRA:  PALGHAR	19.6	72.8	60	1	1	0	0	0	0	0	1	0	0	0	0	1	1	0	0	0	0	0	1	0	0	0	0
5782	0	2004	5	19	21	28	10.6	35	4.1	0	4.1	4.8	0	0	0	6	PHILIPPINES	0	PHILIPPINES:  BOHOL ISLAND:  TUBIGON	9.926	124.038	170	0	0	0	0	0	0	0	1	0	0	0	0	0	0	0	0	0	0	0	1	0	0	0	0
9933	0	2012	5	19	13	41	21.2	10	4.1	0	0	4.1	0	0	0	0	BRAZIL	0	BRAZIL:  MONTES CLAROS	-16.764	-43.999	160	0	0	0	0	0	0	0	1	0	0	6	1	0	0	0	0	0	0	0	1	0	0	6	1
8255	0	2008	12	10	10	53	50	10	4.1	0	0	4.1	4.8	0	0	0	ARGENTINA	0	ARGENTINA:  POTRERILLOS	-32.938	-69.259	160	0	0	0	0	0	0	0	1	0	0	0	0	0	0	0	0	0	0	0	1	0	0	0	0
9999	0	2013	2	15	3	20	26	0	4.2	0	0	4.2	0	0	0	0	RUSSIA	0	RUSSIA:  CHELYABINSK (METEOR EXPLOSION)	55.15	61.41	40	0	0	0	0	1000	3	0	3	0	0	4000	4	0	0	0	0	1000	3	0	3	0	0	4000	4
10231	0	2016	11	29	20	9	35	5	4.2	4.2	0	0	0	0	0	0	POLAND	0	POLAND:  RUDNA	51.613	16.157	120	8	1	0	0	9	1	0	1	0	0	0	0	8	1	0	0	9	1	0	1	0	0	0	0
5655	0	2002	9	30	6	44	48	10	4.2	0	0	4.2	4.5	0	0	0	FRANCE	0	"FRANCE:  HENNEBONT, LANGUIDIC, LORIENT, TREMOREL"	47.832	-3.207	120	0	0	0	0	0	0	0	1	0	0	0	1	0	0	0	0	0	0	0	1	0	0	0	1
1589	0	1811	1	1	5	0	    	7	4.2	0	0	0	0	0	4.2	7	GEORGIA	0	GEORGIA:  KAKHETIYA	41.8	45.2	40	0	0	0	0	0	0	0	2	0	0	0	0	0	0	0	0	0	0	0	0	0	0	0	0
10263	0	2017	8	21	18	57	51	9	4.2	0	0	4.2	0	0	0	0	ITALY	0	ITALY:  ISLAND OF ISCHIA	40.78	13.945	130	2	1	0	0	42	1	0	0	0	1	0	0	2	1	0	0	42	1	0	0	0	1	0	0
311	0	1003	0	0	0	0	0	20	4.2	0	0	0	0	0	4.2	7	TURKEY	0	"TURKEY:  KARS, DIGOR, ANI (ARMENIA)"	40.5	43.3	140	0	3	0	0	0	0	0	2	0	0	0	0	0	0	0	0	0	0	0	0	0	0	0	0
5084	0	1985	11	7	8	26	21.4	33	4.2	0	4.2	5.1	0	0	0	0	TURKEY	0	"TURKEY:  ERZURUM, KARS, AGRI, ARTVIN"	40.31	42.307	140	0	0	0	0	14	1	0	2	113	3	0	0	0	0	0	0	14	1	0	2	113	3	0	0
7601	0	2007	8	6	8	48	40	2	4.2	0	0	4.2	3.9	0	0	0	USA	UT	UTAH:  HUNTINGTON	39.465	-111.237	150	9	1	0	0	0	1	0	0	0	0	0	0	9	1	0	0	0	1	0	0	0	0	0	0
7596	0	2007	7	20	11	42	22.3	5	4.2	4.2	0	0	0	0	0	0	USA	CA	CALIFORNIA:  MONTCLAIR	37.804	-122.193	150	0	0	0	0	0	0	0	1	0	0	0	0	0	0	0	0	0	0	0	1	0	0	0	0
5608	0	2001	9	9	23	59	18	5	4.2	0	0	4.2	0	0	0	6	USA	CA	CALIFORNIA:  LOS ANGELES	34.059	-118.387	150	0	0	0	0	0	0	0	1	0	0	0	0	0	0	0	0	0	0	0	1	0	0	0	0
4984	0	1983	8	6	4	52	53.6	10	4.2	0	4.2	4.7	0	0	0	0	PAKISTAN	0	PAKISTAN:  ZIARAT	30.349	67.84	60	0	0	0	0	0	0	0	2	25	1	25	1	0	0	0	0	0	0	0	2	25	1	0	0
7449	0	2006	12	24	22	43	26.7	10	4.2	0	0	4.2	0	0	0	0	INDIA	0	INDIA:  RAJASTHAN	26.88	76.15	60	0	0	0	0	0	0	0	0	0	0	0	0	0	0	0	0	0	0	0	1	0	0	0	0
5575	0	2000	8	21	13	25	44.5	33	4.2	0	4.2	4.9	0	0	0	0	CHINA	0	CHINA:  YUNNAN PROVINCE:  WUDING	25.826	102.194	30	1	1	0	0	406	3	43	4	0	0	0	0	1	1	0	0	406	3	43	4	0	0	0	0
6825	0	2005	10	27	11	18	57.3	10	4.2	0	0	4.2	0	0	0	0	CHINA	0	CHINA:  GUANGXI PROVINCE	23.604	107.798	30	1	1	0	0	1	1	0	1	0	1	0	0	1	1	0	0	1	1	0	1	0	1	0	0
5526	0	1999	7	22	10	42	11.7	10	4.2	0	4.2	5.2	0	0	0	0	BANGLADESH	0	"BANGLADESH:  MAHESHKHALI ISLAND, COX'S BAZAAR"	21.544	91.895	60	6	1	0	0	200	3	0	3	700	3	0	0	6	1	0	0	200	3	0	3	700	3	0	0
4510	0	1969	12	17	7	13	    	27	4.2	0	0	0	0	0	4.2	0	ECUADOR	0	"ECUADOR:  SASQUISILI, PUJILI, LATACUNGA"	-0.8	-78.3	160	0	0	0	0	0	0	0	3	0	0	0	0	0	0	0	0	0	0	0	0	0	0	0	0
5259	0	1990	9	26	23	8	23.9	5	4.2	0	4.2	5.4	0	0	0	0	SOUTH AFRICA	0	SOUTH AFRICA:  WELKOM	-28.014	26.727	10	2	1	0	0	5	1	0	1	0	0	0	0	2	1	0	0	5	1	0	1	0	0	0	0
2202	0	1872	12	26	13	40	    	5	4.3	0	0	0	0	0	4.3	7	UKRAINE	0	"UKRAINE:  CARPATHIANS:  DOLGE, MARAMOROSH PROVINCE"	48.4	23.3	110	0	0	0	0	0	0	0	2	0	0	0	0	0	0	0	0	0	0	0	0	0	0	0	0
7366	0	2006	8	24	20	1	0.2	5	4.3	0	0	0	4.3	0	0	0	FRANCE	0	FRANCE	45.84	-0.14	120	0	0	0	0	0	0	0	1	0	0	0	0	0	0	0	0	0	0	0	1	0	0	0	0
5634	0	2002	4	25	17	41	21.5	10	4.3	0	4.3	4.8	0	0	0	0	GEORGIA	0	GEORGIA:  TBILISI	41.765	44.96	40	5	1	0	0	52	2	0	3	0	0	2400	4	5	1	0	0	52	2	0	3	0	0	2400	4
6078	Tsu	1928	5	3	1	25	13	0	4.3	0	4.3	0	0	0	0	7	TURKEY	0	TURKEY:  WESTERN	40.8	26.8	140	0	0	0	0	0	0	0	0	0	0	0	0	0	0	0	0	0	0	0	0	0	0	0	0
6637	Tsu	1895	9	1	11	9	0	0	4.3	0	0	0	0	4.3	0	6	USA	NY	NEW JERSEY: HIGH BRIDGE	40.667	-74.883	150	0	0	0	0	0	0	0	0	0	0	0	0	0	0	0	0	0	0	0	0	0	0	0	0
1833	0	1842	1	2	0	0	    	3	4.3	0	0	0	0	0	4.3	8	AZERBAIJAN	0	AZERBAIJAN:  APSCHERON PENINSULA	40.5	50	40	0	0	0	0	0	0	0	2	0	0	0	0	0	0	0	0	0	0	0	0	0	0	0	0
9833	0	2011	5	19	21	12	51	7	4.3	0	0	4.3	4.6	0	0	0	TURKEY	0	TURKEY:  SIMAV	39.12	29.04	140	2	1	0	0	125	3	0	1	0	0	0	2	2	1	0	0	125	3	0	1	0	0	0	2
7253	0	2005	12	24	3	56	7.3	14	4.3	0	0	4.3	4.6	0	0	0	TURKEY	0	TURKEY:  AKHISAR	38.804	26.783	140	0	0	0	0	0	0	0	1	0	0	0	0	0	0	0	0	0	0	0	1	0	0	0	0
2944	0	1911	10	15	8	52	    	1	4.3	0	0	0	0	0	4.3	10	ITALY	0	ITALY:  ETNA	37.7	15.2	130	0	0	0	0	0	0	0	0	0	0	0	0	0	0	0	0	0	0	0	0	0	0	0	0
9865	0	1985	12	25	2	38	56.5	10	4.3	0	0	4.3	0	0	0	0	ITALY	0	ITALY:  SICILY	37.688	15.068	130	1	1	0	0	14	1	0	1	0	0	0	0	1	1	0	0	14	1	0	1	0	0	0	0
5659	0	2002	10	29	10	2	21.5	10	4.3	0	0	4.3	4.5	0	0	8	ITALY	0	ITALY:  SICILY:  SANTA VENERINA	37.67	15.267	130	0	0	0	0	9	1	0	1	0	0	0	2	0	0	0	0	9	1	0	1	0	0	0	2
2531	0	1898	1	15	3	42	    	5	4.3	0	0	0	0	0	4.3	8	IRAN	0	IRAN:  GORGAN (ASTRABAD); TURKMENISTAN	36.5	54.9	140	0	0	0	0	0	0	0	2	0	0	0	0	0	0	0	0	0	0	0	0	0	0	0	0
4693	0	1975	7	11	7	18	46.6	30	4.3	0	0	4.3	0	0	0	0	ALGERIA	0	ALGERIA:  DJEBEL BABOR	36.32	5.241	15	1	1	0	0	18	1	0	2	0	0	0	0	1	1	0	0	18	1	0	2	0	0	0	0
5124	0	1987	1	26	11	11	41.8	10	4.3	0	4.3	4.9	0	0	0	0	ALGERIA	0	"ALGERIA:  MOHAMMADIA, QUED, FODDA, TISSEMSILT"	35.964	1.374	15	1	1	0	0	7	1	1	2	629	3	0	0	1	1	0	0	7	1	1	2	629	3	0	0
2260	0	1878	5	21	0	0	    	0	4.3	0	0	0	0	0	4.3	0	MEXICO	0	MEXICO:  BAJA CALIFORNIA	34.1	-117.3	150	0	0	0	0	0	0	0	3	0	0	0	0	0	0	0	0	0	0	0	0	0	0	0	0
7598	0	2007	7	22	23	2	14.7	19	4.3	0	4.3	5.1	0	0	0	0	INDIA	0	"INDIA:  UTTARKASHI, CHAMOLI, MUZAFFARNAGAR"	30.881	78.239	60	0	0	0	0	3	1	0	1	0	1	0	1	0	0	0	0	3	1	0	1	0	1	0	0
9874	0	2011	9	7	17	58	18.7	10	4.3	0	0	4.3	0	0	0	0	INDIA	0	INDIA:  DELHI	28.724	77.189	60	0	0	0	0	1	1	0	0	0	0	0	0	0	0	0	0	1	1	0	1	0	0	0	0
5605	0	2001	7	14	18	36	8.3	33	4.3	0	4.3	4.6	4.7	0	0	0	CHINA	0	CHINA:  YUNNAN PROVINCE:  JIANGCHUAN	24.455	102.66	30	0	0	0	0	2	1	0	1	150	3	150	3	0	0	0	0	2	1	0	1	150	3	0	0
7765	0	2008	2	6	6	9	40.4	10	4.3	0	0	4.3	0	0	0	0	INDIA	0	INDIA:  WEST BENGAL	23.433	87.111	60	1	1	0	0	50	1	0	2	0	0	0	0	1	1	0	0	50	1	0	2	0	0	0	3
5855	0	2005	3	15	2	7	6.8	10	4.3	0	0	4.3	4.3	0	0	0	INDIA	0	INDIA:  MAHARASHTRA:  DHEBEWADI	17.072	73.668	60	0	0	0	0	0	0	0	1	0	0	0	0	0	0	0	0	0	0	0	1	0	0	0	0
7873	0	2008	2	29	4	46	    	10	4.3	0	0	4.3	0	0	0	0	BRAZIL	0	BRAZIL:  SOBRAL	-3.7	-40.35	160	0	0	0	0	0	0	0	1	0	0	0	0	0	0	0	0	0	0	0	1	0	0	0	0
5170	0	1988	9	6	0	42	33.7	0	4.3	0	0	0	4.3	0	0	0	PAPUA NEW GUINEA	0	PAPUA NEW GUINEA:  KAIAPIT (LANDSLIDE GENERATED)	-6.06	146.23	170	74	2	0	0	0	0	0	2	0	0	0	0	0	0	0	0	0	0	0	0	0	0	0	0
5850	0	2005	3	9	10	15	31.8	5	4.3	0	4.3	5	0	0	0	0	SOUTH AFRICA	0	"SOUTH AFRICA:  KLERKSDORP, STILFONTEIN"	-26.913	26.789	10	2	1	0	0	58	2	0	2	0	0	0	0	2	1	0	0	58	2	0	2	0	0	0	0
5726	0	2003	9	29	15	27	1	10	4.4	0	4.4	5.1	0	0	0	0	RUSSIA	0	RUSSIA:  KOSH-AGACH	50	87.89	40	0	0	0	0	0	0	0	1	0	0	0	0	0	0	0	0	0	0	0	1	0	0	0	0
10137	0	2015	3	8	20	47	4	20	4.4	4.4	0	0	0	0	0	4	SERBIA	0	BALKANS NW: SERBIA:  KOSJERIC	44.088	19.861	130	0	0	0	0	0	0	0	1	0	0	100	2	0	0	0	0	0	0	0	1	0	0	100	2
4606	0	1972	6	21	15	6	53.3	4	4.4	0	0	4.4	0	0	4.4	0	ITALY	0	ITALY:  ANCONA	43.8	13.3	130	2	1	0	0	0	0	300	4	0	0	0	0	0	0	0	0	0	0	0	0	0	0	0	0
4952	0	1982	10	17	10	56	47.6	16	4.4	0	0	4.4	0	0	0	7	ITALY	0	ITALY:  PERUGIA	43.164	12.586	130	0	0	0	0	0	0	35	4	0	0	0	0	0	0	0	0	0	0	0	0	0	0	0	0
5748	0	2003	12	17	23	15	17.2	34	4.4	0	0	4.4	0	0	0	0	BULGARIA	0	BULGARIA: POVADIYA	43.083	27.486	110	0	0	0	0	0	0	0	2	10	1	10	1	0	0	0	0	0	0	0	2	10	1	150	3
5189	0	1989	3	10	8	0	48.7	10	4.4	0	4.4	4.4	0	0	0	0	TURKEY	0	"TURKEY:  ERZURUM, KARS"	40.027	41.816	140	0	0	0	0	0	0	0	2	0	0	0	0	0	0	0	0	0	0	0	0	0	0	0	0
7251	0	2005	11	26	15	56	55	9	4.4	0	4.4	5.3	5.3	0	0	0	TURKEY	0	TURKEY:  DOGANYOL	38.26	38.814	140	0	0	0	0	0	0	0	1	0	0	0	0	0	0	0	0	0	0	0	1	0	0	0	0
5843	0	2005	1	29	7	41	31	5	4.4	0	0	4.4	4.8	0	0	0	SPAIN	0	"SPAIN:  LA PACA, ZARCILLA DE RAMOS"	37.91	-1.82	130	0	0	0	0	0	0	0	2	0	0	0	0	0	0	0	0	0	0	0	2	0	0	0	0
5755	0	2004	1	10	18	38	14.8	10	4.4	0	4.4	4.5	4.6	0	0	0	ALGERIA	0	"ALGERIA:  NORTHERN:  ALGIERS, BOUMERDES"	36.852	3.418	15	0	0	0	0	300	3	0	1	0	0	0	0	0	0	0	0	300	3	0	1	0	0	0	0
8260	Tsu	1978	8	14	14	17	50.4	30	4.4	0	4.4	5	0	0	0	0	SPAIN	0	SPAIN	36.63	-6.871	130	0	0	0	0	0	0	0	0	0	0	0	0	0	0	0	0	0	0	0	0	0	0	0	0
6773	0	2005	8	16	3	45	54.1	43	4.4	0	0	4.4	0	0	0	6	INDIA	0	INDIA:  UTTARANCHAL:  UTTARKAHI	30.924	78.56	60	0	0	0	0	0	0	0	1	0	1	0	1	0	0	0	0	0	0	0	1	0	1	0	0
5645	0	2002	8	24	20	1	18.3	10	4.4	0	0	4.4	0	0	0	0	EGYPT	0	EGYPT:  CAIRO	30.2	31.41	15	0	0	0	0	0	0	0	1	0	0	44	1	0	0	0	0	0	0	0	1	0	0	44	1
8995	0	2010	1	17	9	37	26.1	27	4.4	0	0	4.4	0	0	0	0	CHINA	0	CHINA:  GUIZHOU PROVINCE	25.558	105.804	30	7	1	1	0	9	1	0	0	0	0	0	0	7	1	1	1	9	1	0	0	0	0	0	0
5806	0	2004	10	18	22	11	44.9	30	4.4	0	4.4	4.8	0	0	0	0	CHINA	0	CHINA:  YUNNAN PROVINCE:  BAOSHAN	25.073	99.169	30	0	0	0	0	12	1	0	3	20000	4	20000	4	0	0	0	0	12	1	0	3	20000	4	0	0
6620	Tsu	1989	11	1	10	25	52.2	26	4.4	0	4.4	5.2	0	0	0	0	USA TERRITORY	PR	PUERTO RICO: MONA PASSAGE	18.986	-68.833	90	0	0	0	0	0	0	0	0	0	0	0	0	0	0	0	0	0	0	0	0	0	0	0	0
6771	0	2005	8	14	6	33	32.5	35	4.4	0	0	4.4	0	0	0	7	INDIA	0	INDIA:  MAHARASHTRA	17.398	74.118	60	0	0	0	0	0	0	0	2	0	0	0	0	0	0	0	0	0	0	0	2	0	0	0	0
7615	0	2007	8	20	19	15	53.5	5	4.4	0	0	4.4	4	0	0	0	INDIA	0	INDIA:  MAHARASHTRA:  SATARA	17.2	73.7	60	0	0	0	0	0	0	0	1	0	0	0	0	0	0	0	0	0	0	0	1	0	0	0	0
9172	Tsu	2010	5	29	11	46	50.3	10	4.4	0	0	4.4	0	0	0	0	USA TERRITORY	MP	"ANATAHAN REGION, N. MARIANA ISLANDS"	16.591	145.682	170	0	0	0	0	0	0	0	0	0	0	0	0	0	0	0	0	0	0	0	0	0	0	0	0
8299	0	2009	3	31	17	50	34.1	36	4.4	0	0	4.4	4.9	0	0	0	NICARAGUA	0	NICARAGUA:  SAN JUAN DEL RIO COCO	13.452	-86.06	100	0	0	0	0	0	0	0	1	3	1	10	1	0	0	0	0	0	0	0	2	3	1	10	1
5258	0	1990	8	11	2	59	54.9	5	4.4	0	4.4	5	0	0	0	0	ECUADOR	0	"ECUADOR:  PAMASQUI,  QUITO"	-0.059	-78.449	160	4	1	0	0	10	1	0	3	0	0	1300	4	4	1	0	0	10	1	0	3	0	0	1300	4
10255	0	2017	5	25	9	55	35	10	4.4	0	0	4.4	0	0	0	0	TANZANIA	0	TANZANIA: MWANZA	-3.054	32.893	10	1	1	0	0	18	1	0	0	0	0	0	0	1	1	0	0	18	1	0	0	0	0	0	0
5315	0	1992	2	4	1	58	39.7	58	4.4	0	4.4	5	0	0	0	0	INDONESIA	0	"INDONESIA:  JAWA, BREBES"	-7.138	109.067	60	0	0	0	0	1	1	0	3	800	3	700	3	0	0	0	0	1	1	0	3	800	3	700	3
10327	0	2018	4	18	6	28	35	4	4.4	0	0	0	0	0	4.4	2	INDONESIA	0	INDONESIA:  JAVA:  BANJARNEGARA	-7.21	109.65	60	3	1	0	0	21	1	0	2	0	0	316	3	3	1	0	0	21	1	0	2	0	0	316	3
5540	0	1999	10	31	13	27	42.4	62	4.4	0	0	4.4	0	0	0	0	PERU	0	"PERU:  CHUSCHI, CANGALLo, HUANCAPI"	-13.64	-74.43	160	0	0	0	0	30	1	0	3	210	3	1100	4	0	0	0	0	30	1	0	3	210	3	1100	4
5260	0	1990	9	27	21	12	32.5	33	4.5	0	4.5	5	0	0	0	6	KAZAKHSTAN	0	KAZAKHSTAN:  ZAYSAN	47.903	84.961	40	0	0	0	0	0	0	0	1	0	0	0	0	0	0	0	0	0	0	0	1	0	0	0	0
8832	0	1982	1	11	21	41	7.9	7	4.5	0	4.5	5.4	0	0	0	6	CANADA	0	"CANADA; MAINE:  CARIBOU, HAYNESVILLE, PRESQUE ISLE"	46.975	-66.659	150	0	0	0	0	0	0	0	1	0	0	0	0	0	0	0	0	0	0	0	1	0	0	0	0
4091	0	1956	1	31	2	25	    	7	4.5	0	0	0	0	0	4.5	7	SLOVENIA	0	"BALKANS NW:  SLOVENIA:  ILIRSKA BISTRICA,KOSEZE"	45.5	14.3	130	0	0	0	0	0	0	0	2	0	0	0	0	0	0	0	0	0	0	0	0	0	0	0	0
7522	0	2007	5	8	15	46	49.1	14	4.5	4.5	0	4.8	4.7	0	0	5	USA	MT	MONTANA:  SHERIDAN	45.394	-112.13	150	0	0	0	0	0	0	0	1	0	0	0	0	0	0	0	0	0	0	0	1	0	0	0	0
4660	0	1974	6	20	17	8	27.3	7	4.5	0	0	4.5	0	0	5.1	7	SLOVENIA	0	BALKANS NW:  SLOVENIA:  KOZJANSKO	44.97	15.53	130	0	0	0	0	0	0	0	2	0	0	0	0	0	0	0	0	0	0	0	0	0	0	0	0
2145	0	1868	10	18	17	0	    	15	4.5	0	0	0	0	0	4.5	7	GEORGIA	0	GEORGIA:  SPASK	41.2	43.8	40	0	0	0	0	0	0	0	2	0	0	0	0	0	0	0	0	0	0	0	0	0	0	0	0
7503	0	2007	4	16	7	38	53.8	14	4.5	0	0	4.5	5.2	0	0	0	ALBANIA	0	ALBANIA:  TIRANA	41.172	19.897	130	0	0	0	0	0	0	0	1	0	1	0	0	0	0	0	0	0	0	0	0	0	1	0	0
4873	0	1980	5	14	1	41	3.8	24	4.5	0	0	4.5	0	0	0	8	ITALY	0	ITALY:  S	40.459	15.855	130	0	0	0	0	0	0	0	2	0	0	0	0	0	0	0	0	0	0	0	0	0	0	0	0
7249	0	2006	6	13	14	15	38.3	10	4.5	0	0	4.5	4.8	0	0	0	ALBANIA	0	ALBANIA:  TEPELENE	40.27	19.96	130	0	0	0	0	1	1	0	1	12	1	0	0	0	0	0	0	1	1	0	1	12	1	0	0
225	0	856	1	0	0	0	0	10	4.5	0	4.5	0	0	0	0	8	ARMENIA	0	ARMENIA:  DVIN	40	44.6	40	0	0	0	0	0	0	0	3	0	3	0	0	0	2	0	0	0	0	0	3	0	3	0	0
5293	0	1991	6	16	11	7	10.6	26	4.5	0	4.5	4.6	0	0	0	0	TURKEY	0	TURKEY:  KAGIZMAN	39.984	42.875	140	0	0	0	0	0	0	0	2	0	0	0	0	0	0	0	0	0	0	0	0	0	0	0	0
7770	Tsu	1962	5	28	22	57	47	0	4.5	0	4.5	0	0	0	0	5	GREECE	0	GREECE:  AEGEAN SEA	39.8	25	130	0	0	0	0	0	0	0	0	0	0	0	0	0	0	0	0	0	0	0	0	0	0	0	0
4790	0	1978	2	15	3	17	37.3	33	4.5	0	4.5	4.8	0	0	4.5	0	TURKEY	0	TURKEY	39.69	39.79	140	0	0	0	0	20	1	0	2	525	3	0	0	0	0	0	0	0	0	0	0	0	0	0	0
5285	0	1991	4	24	10	54	35.7	33	4.5	0	0	4.5	0	0	0	0	TURKEY	0	TURKEY:  ERZURUM PROVINCE	39.597	41.118	140	1	1	0	0	3	1	0	1	0	0	0	2	1	1	0	0	3	1	0	1	0	0	0	2
5709	0	2003	7	26	1	0	57.6	10	4.5	0	0	4.5	5	0	0	0	TURKEY	0	TURKEY:  WESTERN:  BULDAN	38.111	28.887	140	0	0	0	0	0	2	0	1	0	0	0	0	0	0	0	0	0	2	0	1	0	0	48	1
1966	0	1854	9	22	0	0	0	0	4.5	0	4.5	0	0	0	0	6	IRAN	0	"IRAN:  TABRIZ, KHVOY (KHOI)"	38.06	45.03	140	0	0	0	0	0	0	0	2	0	2	0	0	0	0	0	0	0	0	0	2	0	2	0	0
7453	0	2007	1	9	14	49	48.8	20	4.5	0	0	4.5	0	0	0	0	CHINA	0	CHINA:  GANSU PROVINCE	37.021	103.911	30	0	0	0	0	0	0	0	3	2000	4	0	0	0	0	0	0	0	0	0	3	2000	4	0	0
5049	0	1984	10	9	4	30	42.4	27	4.5	0	4.5	5	0	0	0	7	GREECE	0	GREECE:  MESSINA	37.013	21.757	130	0	0	0	0	1	1	0	2	0	3	0	0	0	0	0	0	1	1	0	3	0	3	0	0
4282	0	1963	1	31	2	27	    	3	4.5	0	0	0	0	0	4.5	9	IRAN	0	"IRAN:  KHENDODZHAN, DAKHNE-UDZHAK"	36.9	57.8	140	4	1	0	0	0	0	0	2	0	0	0	0	0	0	0	0	0	0	0	0	0	0	0	0
5820	0	2004	12	5	8	30	59.5	10	4.5	0	0	4.5	4.7	0	0	0	ALGERIA	0	ALGERIA:  ZEMMOURI	36.865	3.421	15	0	0	0	0	46	1	0	0	0	0	0	0	0	0	0	0	46	1	0	0	0	0	0	0
5819	0	2004	12	1	17	42	24.7	10	4.5	0	0	4.5	0	0	0	0	ALGERIA	0	ALGERIA:  BOUMERDAS	36.848	3.448	15	0	0	0	0	15	1	0	1	0	0	0	0	0	0	0	0	15	1	0	1	0	0	0	0
7900	0	319	6	17	0	0	0	0	4.5	0	4.5	0	0	0	0	0	CHINA	0	CHINA:  GANSU PROVINCE:  XIHE	34.1	105.3	30	0	2	0	0	0	0	0	0	0	0	0	0	0	2	0	0	0	0	0	0	0	0	0	0
8129	0	2008	5	1	0	15	27.4	16	4.5	0	0	4.5	4.7	0	0	0	IRAN	0	"IRAN:  LORESTAN, BOROUJERD"	33.86	48.59	140	0	0	0	0	100	1	0	1	0	0	0	0	0	0	0	0	100	2	0	1	0	0	0	0
7250	0	2006	6	20	16	52	57.9	24	4.5	0	4.5	5.1	0	0	0	0	CHINA	0	CHINA:  GANSU PROVINCE	33.068	104.95	30	0	0	0	0	5	1	0	1	0	1	0	0	0	0	0	0	5	1	0	1	0	1	0	0
8254	0	2008	12	9	18	53	11.1	25	4.5	0	4.5	5.5	0	0	0	0	CHINA	0	CHINA:  SICHUAN PROVINCE	32.518	105.395	30	2	1	0	0	3	1	0	0	0	0	0	0	2	1	0	0	3	1	0	0	0	0	0	0
7411	0	2006	10	27	10	52	5.7	10	4.5	0	0	4.5	0	0	0	0	CHINA	0	CHINA:  HUBEI	31.56	113.21	30	0	0	0	0	0	0	0	2	0	0	0	0	0	0	0	0	0	0	0	2	0	0	0	0
9762	0	2011	1	5	16	32	24.2	24	4.5	0	0	4.5	4.4	0	0	0	IRAN	0	IRAN:  FARS PROVINCE	30.16	51.62	140	0	0	0	0	16	1	0	2	0	0	0	0	0	0	0	0	16	1	0	2	0	0	0	0
5780	0	2004	5	8	20	11	44.2	10	4.5	0	0	4.5	0	0	0	0	PAKISTAN	0	PAKISTAN:  QUETTA	30.126	67.121	60	1	1	0	0	30	1	0	1	0	0	0	0	1	1	0	0	30	1	0	1	0	0	0	1
9512	0	2010	5	1	22	36	29.3	36	4.5	0	0	4.5	0	0	0	0	INDIA	0	INDIA:  CHAMOLI	30.099	80.026	60	0	0	0	0	0	0	0	1	0	0	0	0	0	0	0	0	0	0	0	1	0	0	0	0
4594	0	1972	2	10	6	49	15.9	21	4.5	0	0	4.5	0	0	4.5	0	IRAN	0	"IRAN:  DEH KOHNEH,SA'DABAD,BORAZJAN"	29.7	50.9	140	0	0	0	0	0	0	0	3	0	0	0	0	0	0	0	0	0	0	0	0	0	0	0	0
5114	0	1986	10	16	19	54	10.4	43	4.5	0	4.5	5.2	0	0	0	0	PAKISTAN	0	PAKISTAN:  KHUZDAR	27.727	66.65	60	0	0	0	0	0	0	0	1	150	3	150	3	0	0	0	0	0	0	0	1	150	3	0	0
10094	0	2014	5	8	22	52	23	15	4.5	4.5	0	0	0	0	0	0	PAKISTAN	0	PAKISTAN:  NAWABSHAH	26.387	68.358	60	2	1	0	0	70	2	0	1	0	2	0	0	2	1	0	0	70	2	0	1	0	2	0	0
5511	0	1998	12	1	7	37	56.1	10	4.5	0	0	4.5	0	0	0	0	CHINA	0	CHINA:  YUNNAN PROVINCE  SOUTHEASTERN	26.373	104.021	30	0	0	0	0	84	2	22.6	3	21872	4	21872	4	0	0	0	0	84	2	22.6	3	21872	4	0	0
5638	0	2002	6	20	5	40	43.3	40	4.5	0	0	4.5	0	0	0	0	BANGLADESH	0	"BANGLADESH:  RANGPUR, THAKURGAON, ALMANAGAR"	25.842	88.932	60	0	0	0	0	55	2	0	1	0	0	0	2	0	0	0	0	55	2	0	1	0	0	0	2
5613	0	2001	12	19	7	54	7.9	10	4.5	0	0	4.5	0	0	0	6	BANGLADESH	0	BANGLADESH:  DHAKA	23.632	90.376	60	0	0	0	0	100	2	0	1	0	0	0	2	0	0	0	0	100	2	0	1	0	0	0	2
6769	0	2005	8	13	4	58	44.8	10	4.5	0	4.5	4.8	0	0	0	0	CHINA	0	CHINA:  YUNNAN PROVINCE:  WENSHAN	23.627	104.103	30	0	0	0	0	26	1	0	1	0	2	0	2	0	0	0	0	26	1	0	1	0	2	0	0
7874	0	2008	3	9	11	10	41	10	4.5	0	0	4.5	0	0	0	0	INDIA	0	INDIA:  GUJARAT	23.33	70.592	60	0	0	0	0	0	0	0	1	0	0	0	0	0	0	0	0	0	0	0	1	0	0	0	1
10127	0	2015	2	20	22	37	28	10	4.5	0	0	4.5	0	0	0	0	CHINA	0	CHINA:  YUNNAN PROVINCE	23.01	101.755	30	0	0	0	0	0	0	0	1	0	0	276	3	0	0	0	0	0	0	0	1	0	0	276	3
5730	0	2003	10	16	3	20	55.3	10	4.5	0	4.5	4.8	0	0	0	0	DOMINICAN REPUBLIC	0	"DOMINICAN REPUBLIC:   MOCA, SANTIAGO"	19.761	-70.693	90	0	0	0	0	0	0	0	1	0	0	0	1	0	0	0	0	0	0	0	1	0	0	0	1
5081	0	1985	10	11	3	39	10.9	5	4.5	0	0	4.5	0	0	0	7	GUATEMALA	0	GUATEMALA:  SAN MIGUEL UPSANTAN	15.299	-90.863	100	0	0	0	0	0	3	0	2	500	3	500	3	0	0	0	0	0	3	0	2	500	3	0	3
4810	0	1978	7	29	14	37	32.7	10	4.5	0	4.5	4.9	0	0	0	0	GUATEMALA	0	GUATEMALA:  PATZUN	14.843	-91.022	100	17	1	0	0	0	3	0	2	0	0	0	0	17	1	0	0	0	3	0	2	0	0	0	0
10341	0	2015	8	9	7	5	38	10	4.5	4.5	0	0	0	0	0	4	EL SALVADOR	0	EL SALVADOR:  ALEGRIA	13.668	-88.478	100	0	0	0	0	4	1	0	2	0	0	92	2	0	0	0	0	4	1	0	2	0	0	92	2
6767	0	2005	8	5	18	7	13.8	10	4.5	0	0	4.5	0	0	0	0	VIETNAM	0	VIETNAM:  HO CHI MINH CITY	9.985	108.383	30	0	0	0	0	0	0	0	1	0	0	0	0	0	0	0	0	0	0	0	1	0	0	0	0
7242	0	2006	5	4	17	43	9.7	0	4.5	0	0	0	4.5	0	0	0	PANAMA	0	PANAMA:  BOQUETE	8.898	-82.543	100	0	0	0	0	0	0	0	1	0	0	0	0	0	0	0	0	0	0	0	1	0	0	0	0
5290	0	1991	5	26	10	59	48.9	33	4.5	0	4.5	5.1	0	0	0	0	MALAYSIA	0	MALAYSIA:  KALIMANTAN:  RANAU	5.865	116.746	170	1	1	0	0	0	0	0	1	0	0	0	0	1	1	0	0	0	0	0	1	0	0	0	0
1263	0	1735	2	2	18	0	0	20	4.5	0	4.5	0	0	0	0	0	COLOMBIA	0	COLOMBIA:  POPAYAN	2.6	-76.5	160	0	1	0	0	0	0	0	3	0	3	0	0	0	1	0	0	0	0	0	3	0	3	0	0
7554	0	2007	7	13	7	20	25.5	50	4.5	0	0	4.5	0	0	0	0	ECUADOR	0	ECUADOR:  ZARUMA	-3.987	-79.836	160	0	0	0	0	0	0	0	1	0	0	0	0	0	0	0	0	0	0	0	0	0	0	0	0
10321	0	2015	2	28	20	10	56	10	4.5	0	0	0	4.5	0	0	3	PERU	0	PERU:  AREQUIPA:  CAYLLOMA:  CABANACONDE	-15.693	-71.934	160	0	0	0	0	0	0	0	2	64	2	500	3	0	0	0	0	0	0	0	2	64	2	500	3
5555	0	2000	2	7	19	34	57	5	4.5	0	0	4.5	0	0	0	0	SOUTH AFRICA	0	SOUTH AFRICA; SWAZILAND:  MBABANE-MANZINI	-26.288	30.888	10	0	0	0	0	1	1	0	1	0	0	0	0	0	0	0	0	1	1	0	1	0	0	0	0
10074	0	2014	2	26	0	1	29	1	4.5	4.5	0	0	0	0	0	0	AUSTRALIA	0	AUSTRALIA:  KALGOORLIE	-30.686	121.332	60	0	0	0	0	0	0	0	1	0	0	0	0	0	0	0	0	0	0	0	1	0	0	0	0
9828	0	2010	12	25	21	30	15.7	5	4.5	0	0	4.5	4.9	0	0	0	NEW ZEALAND	0	NEW ZEALAND:  CHRISTCHURCH	-43.55	172.647	170	0	0	0	0	0	0	0	1	0	0	20	1	0	0	0	0	0	0	0	1	0	0	20	1
7526	0	2007	4	28	7	18	11.3	10	4.6	0	0	4.6	5	0	0	6	UK	0	UNITED KINGDOM:  ENGLAND:  FOLKESTONE	51.085	1.009	120	0	0	0	0	1	1	0	1	0	0	0	0	0	0	0	0	1	1	0	1	0	0	0	0
4778	0	1977	7	16	13	13	29.6	6	4.6	0	0	4.6	0	0	4.2	6	SLOVENIA	0	"BALKANS NW:  SLOVENIA:  TRSTENIK,BELA,TENETISE"	46.29	14.29	130	0	0	0	0	0	0	0	2	0	0	0	0	0	0	0	0	0	0	0	0	0	0	0	0
9992	Tsu	1968	4	18	19	38	15	7	4.6	4.6	0	4.1	0	0	0	6	ITALY	0	ITALY:  LIGURIA	44.08	8	130	0	0	0	0	0	0	0	0	0	0	0	0	0	0	0	0	0	0	0	0	0	0	0	0
5141	0	1987	9	4	16	42	49.1	19	4.6	0	4.6	5.1	0	0	0	8	ITALY	0	ITALY:  PORTO SAN GIORGIO-PERMO-PDEASO AREA	43.242	13.874	130	0	0	0	0	2	1	0	2	0	0	0	0	0	0	0	0	2	1	0	2	0	0	0	0
4556	0	1971	2	6	18	9	9.1	33	4.6	0	0	4.6	0	0	0	8	ITALY	0	ITALY:  TUSCANIA	42.5	11.8	130	24	1	0	0	150	3	41	4	40	1	1678	4	24	1	0	0	150	3	41	4	40	1	1678	4
7224	0	2006	2	20	17	20	9	10	4.6	0	0	4.6	4.6	0	0	0	BULGARIA	0	GREECE-BULGARIA BORDER REGION	41.708	25.544	110	0	0	0	0	2	1	0	0	0	1	0	1	0	0	0	0	2	1	0	0	0	1	0	0
4913	0	1981	2	14	17	27	44.3	10	4.6	0	0	4.6	0	0	0	7	ITALY	0	ITALY:  S	41.051	14.601	130	12	1	0	0	0	0	0.5	1	0	0	0	0	12	1	0	0	0	0	0.5	1	0	0	0	0
5267	0	1990	12	1	18	9	28.8	29	4.6	0	4.6	5	0	0	0	6	KYRGYZSTAN	0	KYRGYZSTAN:  UZGEN	40.854	73.553	40	0	0	0	0	0	0	0	3	0	0	1110	4	0	0	0	0	0	0	0	3	0	0	1110	4
5371	0	1994	1	16	1	49	16.2	5	4.6	0	0	4.6	0	0	0	5	USA	PA	"PENNSYLVANIA: READING, FELT TO CANADA"	40.33	-76.037	150	0	0	0	0	0	0	0	1	0	0	0	0	0	0	0	0	0	0	0	1	0	0	0	0
4971	0	1983	4	2	0	32	27.7	33	4.6	0	0	4.6	0	0	0	5	TURKMENISTAN	0	TURKMENISTAN:  KUM-DAG	39.042	48.714	40	0	0	0	0	0	0	5	2	0	0	0	0	0	0	0	0	0	0	5	2	0	0	0	0
8337	0	1966	7	12	0	4	12	64	4.6	0	4.6	0	0	0	0	0	TURKEY	0	TURKEY:  BAGICI	38.9	41.3	140	12	1	0	0	20	1	0	3	0	0	0	0	12	1	0	0	20	1	0	3	0	0	0	0
4310	0	1964	2	18	12	19	    	33	4.6	0	0	0	0	0	4.6	0	AZORES (PORTUGAL)	0	AZORES	38.8	-28.4	130	0	0	0	0	0	0	0	3	0	0	0	0	0	0	0	0	0	0	0	0	0	0	0	0
4942	0	1982	4	14	6	36	56.7	33	4.6	0	4.6	4.9	0	0	0	0	CHINA	0	CHINA:  GANSU PROVINCE	36.785	105.55	30	0	0	0	0	0	0	0	1	0	0	0	0	0	0	0	0	0	0	0	1	0	0	0	0
7748	0	2008	1	9	22	24	3.8	10	4.6	0	0	4.6	5.3	0	0	0	ALGERIA	0	ALGERIA:  ORAN	35.616	-0.57	15	1	1	0	0	0	0	0	2	0	0	0	0	1	1	0	0	0	0	0	2	0	0	0	2
5790	0	2004	7	14	14	36	2.5	0	4.6	0	0	4.6	0	0	0	0	AFGHANISTAN	0	AFGHANISTAN: HERAT	34.89	61.852	40	0	0	0	0	0	0	0	2	0	0	0	0	0	0	0	0	0	0	0	2	0	0	150	3
7502	0	2007	4	15	3	19	30.3	16	4.6	0	4.6	5.4	0	0	0	0	JAPAN	0	JAPAN:  HONSHU:  W	34.807	136.239	30	0	0	0	0	12	1	0	2	63	1	0	0	0	0	0	0	12	1	0	2	63	2	0	0
5703	0	2003	4	29	8	59	39	20	4.6	4.6	0	4.4	0	0	0	6	USA	AL	"ALABAMA:  FORT PAYNE,GAYLESVILLE,VALLEY HEAD"	34.494	-85.629	150	0	0	0	0	0	0	0	1	0	0	0	0	0	0	0	0	0	0	0	1	0	0	0	0
5136	0	1987	5	29	6	27	50.7	41	4.6	0	4.6	4.9	0	0	0	0	IRAN	0	"IRAN:  W, NAHAVAND-HAMADEN-TUYSARKAN"	34.076	48.266	140	2	1	0	0	50	1	0	1	0	0	0	0	2	1	0	0	50	1	0	1	0	0	0	0
10132	0	2015	3	14	6	14	38	10	4.6	0	0	4.6	0	0	0	0	CHINA	0	CHINA:  ANHUI PROVINCE:  FUYANG	33.15	115.8	30	2	1	0	0	13	1	0	2	155	3	11079	4	2	1	0	0	13	1	0	2	155	3	11079	4
5316	0	1992	3	4	11	57	53	18	4.6	0	4.6	4.9	0	0	0	0	IRAN	0	IRAN:  LORDEGAN ARDAL AREA	31.726	50.778	140	6	1	0	0	50	1	0	2	300	3	0	0	6	1	0	0	50	1	0	2	300	3	0	0
7367	0	2006	8	25	5	51	44.3	22	4.6	0	4.6	5.2	0	0	0	0	CHINA	0	CHINA:  SICHUAN PROVINCE	28.012	104.151	30	1	1	0	0	31	1	0	2	0	0	0	0	1	1	0	0	31	1	0	2	0	0	0	0
5785	0	2004	6	9	11	41	16.5	10	4.6	0	0	0	4.6	0	0	0	SAUDI ARABIA	0	SAUDI ARABIA: WESTERN	27.836	36.905	140	0	0	0	0	0	0	0	1	0	0	0	0	0	0	0	0	0	0	0	1	0	0	0	0
8379	0	2009	5	17	19	50	6.2	10	4.6	0	0	4.6	0	0	0	0	SAUDI ARABIA	0	SAUDI ARABIA: WESTERN	25.212	37.597	140	0	0	0	0	0	0	0	1	0	2	0	0	0	0	0	0	0	0	0	1	0	2	0	0
5544	0	1999	11	24	16	40	21.2	33	4.6	0	4.6	4.8	5	0	0	0	CHINA	0	CHINA:  YUNNAN PROVINCE:  CHENGJIANG	24.589	102.872	30	1	1	0	0	5	1	0	1	90	2	90	2	1	1	0	0	5	1	0	1	90	2	0	0
5551	0	2000	1	3	22	34	12.6	33	4.6	0	0	4.6	0	0	0	0	INDIA	0	INDIA-BANGLADESH BORDER:  MAHESHKHALI	22.132	92.771	60	0	0	0	0	0	0	0	1	0	0	0	0	0	0	0	0	0	0	0	1	0	0	100	2
5179	0	1988	11	10	1	17	49.4	10	4.6	0	0	4.6	0	0	0	0	CHINA	0	"CHINA:  E, QINZHOU-FANGCHENG, NANNING"	21.23	108.545	30	0	0	0	0	71	2	0	1	0	0	0	0	0	0	0	0	71	2	0	1	0	0	0	0
7441	0	2006	12	12	17	2	29.7	10	4.6	0	0	4.6	0	0	0	0	THAILAND	0	THAILAND:  MAE RIM	18.901	98.916	60	0	0	0	0	0	0	0	1	5	1	0	0	0	0	0	0	0	0	0	1	5	1	0	0
5368	0	1993	11	12	13	27	28.1	10	4.6	0	0	4.6	0	0	0	0	INDIA	0	INDIA:  LATUR	18.12	76.533	60	0	0	0	0	25	1	0	1	0	0	0	0	0	0	0	0	25	1	0	1	0	0	100	2
4423	0	1968	1	4	10	3	0	5	4.6	0	4.6	0	0	0	0	0	NICARAGUA	0	NICARAGUA:  MANAGUA	12.1	-86.2	100	0	0	0	0	0	0	2	2	0	0	0	0	0	0	0	0	0	0	2	2	0	0	0	0
5243	0	1990	6	8	0	31	50	10	4.6	0	4.6	4.7	0	0	0	0	COSTA RICA	0	COSTA RICA:  SANTIAGO DE PURISCAL	9.855	-84.327	100	0	0	0	0	0	0	0	1	0	0	14	1	0	0	0	0	0	0	0	1	0	0	14	1
8187	0	1968	3	20	19	2	50.3	33	4.6	0	4.6	0	0	0	0	0	KENYA	0	"KENYA:  HOMA BAY, USIRI, GOT KOKECH"	-0.6	34.4	10	1	1	0	0	1	1	0	1	0	0	0	0	1	1	0	0	1	1	0	1	0	0	0	0
5684	0	2003	3	21	11	38	20	33	4.6	0	0	4.6	0	0	0	0	INDONESIA	0	"INDONESIA:  JAVA:  CARACAS, CILIMUS, SAMPORA"	-6.983	108.468	60	0	0	0	0	0	0	0	2	0	0	0	0	0	0	0	0	0	0	0	2	0	0	800	3
8258	0	2009	1	21	18	17	3.3	10	4.6	0	0	4.6	4.2	0	0	0	PERU	0	PERU:  PACCHA	-11.779	-75.626	160	0	0	0	0	0	0	0	2	50	1	500	3	0	0	0	0	0	0	0	2	50	1	500	3
5092	0	1986	4	5	20	14	28.7	51	4.6	0	4.6	5.3	0	0	0	6	PERU	0	PERU:  CUZCO	-13.41	-71.785	160	16	1	0	0	170	3	22	3	2000	4	0	0	16	1	0	0	170	3	22	3	2000	4	0	0
7708	0	2007	12	9	2	3	29.4	10	4.6	0	0	4.6	0	0	0	0	BRAZIL	0	BRAZIL:  MINAS GERAIS	-15.048	-44.231	160	1	1	0	0	6	1	0	2	76	2	0	0	1	1	0	0	6	1	0	2	76	2	0	0
9868	0	1984	7	19	6	56	10.4	13	4.7	0	4.7	5	5.4	0	0	0	UK	0	UNITED KINGDOM:  WALES	52.878	-4.198	120	0	0	0	0	0	1	0	1	0	0	0	0	0	0	0	0	0	1	0	1	0	0	0	0
5228	0	1990	4	2	13	46	31.7	18	4.7	0	0	4.7	0	0	0	6	UK	0	"UNITED KINGDOM:  MANCHESTER, LIVERPOOL"	52.314	-2.985	120	0	0	0	0	0	0	0	1	0	0	0	2	0	0	0	0	0	0	0	1	0	0	0	2
5686	0	2003	3	22	13	36	16	6	4.7	0	0	0	4.7	0	0	0	GERMANY	0	GERMANY:  ALBSTADT	48.21	9	120	0	0	0	0	0	0	0	1	0	0	0	0	0	0	0	0	0	0	0	1	0	0	0	0
6763	0	2005	7	25	15	43	41.1	48	4.7	0	4.7	5	0	0	0	0	CHINA	0	CHINA:  DAQING	46.827	125.058	30	1	1	0	0	12	1	0	0	0	0	0	0	1	1	0	0	12	1	0	0	0	0	0	0
7418	0	2006	11	23	11	4	44.3	20	4.7	0	4.7	5.3	0	0	0	0	CHINA	0	CHINA:  XINJIANG PROVINCE:  NORTH	44.229	83.524	40	0	0	0	0	0	0	0	2	60	2	0	0	0	0	0	0	0	0	0	2	60	1	0	0
5675	0	2003	1	26	19	57	3.2	7	4.7	0	0	4.7	4.6	0	0	7	ITALY	0	"ITALY:  SPINELLO, SANTA SOFIA, BAGNO DI ROMAGNA"	43.883	11.96	130	0	0	0	0	0	0	0	1	0	0	0	1	0	0	0	0	0	0	0	1	0	0	0	1
7412	0	2006	11	3	6	21	39.2	10	4.7	0	0	4.7	0	0	0	0	CHINA	0	CHINA:  NEI MONGOL	43.469	119.558	30	0	0	0	0	0	0	0	3	55886	4	0	0	0	0	0	0	0	0	0	3	5586	4	0	0
5044	0	1984	9	7	0	44	41.7	13	4.7	0	4.7	5.1	0	0	0	8	SERBIA	0	BALKANS NW:  SERBIA	43.314	20.957	130	0	0	0	0	2	1	0	2	0	0	0	0	0	0	0	0	2	1	0	2	0	0	0	0
4493	0	1969	8	11	13	55	0	33	4.7	0	4.7	4.6	0	0	0	7	ITALY	0	ITALY:  PERUGIA	43.2	12.4	130	0	0	0	0	4	1	0	1	0	0	0	0	0	0	0	0	4	1	0	1	0	0	0	0
10326	0	2018	4	10	3	11	31	5	4.7	4.7	0	0	0	0	0	0	ITALY	0	ITALY:  MUCCIA	43.093	13.046	130	0	0	0	0	0	0	0	1	0	0	0	0	0	0	0	0	0	0	0	1	0	0	0	0
7416	0	2006	11	17	18	19	51.6	10	4.7	0	0	4.7	5.4	0	0	0	FRANCE	0	FRANCE:  PYRENEES	42.99	-0.05	120	0	0	0	0	0	0	0	1	0	0	0	0	0	0	0	0	0	0	0	1	0	0	0	0
4963	0	1983	2	25	18	22	12.9	24	4.7	0	0	4.7	0	0	0	7	MACEDONIA	0	BALKANS NW:  MACEDONIA:  SKOPJE	41.959	21.54	130	12	1	0	0	0	0	0.5	1	0	0	0	0	12	1	0	0	0	0	0.5	1	0	0	0	0
5445	0	1997	1	12	12	10	51.3	10	4.7	0	4.7	4.8	0	0	0	6	ALBANIA	0	"ALBANIA:  BERAT, URA VAJGURORE, GRAMSH, CERRIK"	40.956	19.672	130	0	0	0	0	0	0	0	1	0	0	0	0	0	0	0	0	0	0	0	0	0	0	0	0
7365	0	2006	8	18	11	45	49.4	10	4.7	0	0	4.7	0	0	0	0	TAJIKISTAN	0	TAJIKISTAN:  DUSHANBE (STALINABAD)	38.246	69.22	40	0	0	0	0	0	0	0	1	0	0	0	0	0	0	0	0	0	0	0	1	0	0	0	0
8073	0	1964	9	1	22	20	30	0	4.7	0	4.7	0	0	0	0	0	CHINA	0	CHINA:  SHANXI PROVINCE	35.1	111.6	30	0	0	0	0	0	0	0	1	23	1	0	0	0	0	0	0	0	0	0	1	23	1	0	0
7483	0	2007	3	6	22	32	6.8	16	4.7	0	0	4.7	0	0	0	0	IRAN	0	IRAN:  WESTERN:  DORUD	33.49	48.93	140	0	0	0	0	35	1	0	1	0	0	0	0	0	0	0	0	35	1	0	1	0	0	0	0
7454	0	2007	1	10	17	18	58.3	23	4.7	0	0	4.7	0	0	0	0	CHINA	0	CHINA:  GANSU PROVINCE	33.259	104.74	30	0	0	0	0	0	0	0	1	0	2	0	0	0	0	0	0	0	0	0	1	0	2	0	0
5232	0	1990	4	18	19	38	8.9	47	4.7	0	0	4.7	0	0	0	0	IRAN	0	IRAN:  HANNA	31.107	51.678	140	0	0	0	0	0	0	0	1	0	0	0	0	0	0	0	0	0	0	0	1	0	0	0	0
5212	0	1989	10	1	2	59	6.3	42	4.7	0	4.7	5.2	0	0	0	0	IRAN	0	IRAN:  DEH BORZORG-E SISAKHT	30.96	51.421	140	0	0	0	0	0	0	0	2	0	0	0	0	0	0	0	0	0	0	0	0	0	0	0	0
8752	0	2010	1	30	21	36	58	10	4.7	0	4.7	5.1	0	0	0	0	CHINA	0	CHINA:  SICHUAN PROVINCE: MOXI	30.268	105.668	30	1	1	0	0	15	1	0	2	200	3	200	3	1	1	0	0	15	1	0	2	200	3	0	0
9825	0	2010	11	12	9	37	19.9	27	4.7	0	0	4.7	0	0	0	0	PAKISTAN	0	PAKISTAN:  QUETTA	30.178	67.117	60	0	0	0	0	12	1	0	1	0	0	0	2	0	0	0	0	12	1	0	1	0	0	0	2
5218	0	1989	11	20	3	21	7.8	33	4.7	0	4.7	5.2	0	0	0	0	CHINA	0	CHINA:  SICHUAN PROVINCE:  JIANGBEI COUNTY	29.882	106.804	30	4	1	0	0	161	3	5	2	5000	4	53000	4	4	1	0	0	161	3	5	2	5000	4	53000	4
5337	0	1992	9	8	0	38	15.4	18	4.7	0	4.7	5.2	0	0	0	0	IRAN	0	IRAN:  FIRUZABAD	29.134	52.187	140	1	1	0	0	11	1	0	2	200	3	0	0	1	1	0	0	11	1	0	2	200	3	0	0
7704	0	2007	11	25	23	12	17	10	4.7	0	0	4.7	0	0	0	0	INDIA	0	"INDIA:  BADAUN, MEERUT, NOIDA, REWARI"	28.555	77.057	60	0	0	0	0	0	0	0	1	0	1	0	1	0	0	0	0	0	0	0	1	0	1	0	0
5737	0	2003	11	26	13	38	57.8	33	4.7	0	0	4.7	0	0	0	0	CHINA	0	CHINA:  YUNNAN PROVINCE:  LUDIAN	27.283	103.753	30	0	0	0	0	4	1	0	4	2000	4	2000	4	0	0	0	0	4	1	0	4	2000	4	0	0
8256	0	2008	12	25	20	20	51.5	35	4.7	0	0	4.7	0	0	0	0	MYANMAR (BURMA)	0	MYANMAR (BURMA)	23.97	97.569	60	0	0	0	0	19	1	0	3	30	1	30	1	0	0	0	0	19	1	0	3	30	1	5400	4
5180	0	1988	11	12	3	34	48.6	16	4.7	0	4.7	5.4	0	0	0	6	JAMAICA	0	"JAMAICA:  ST ANDREW, JACKS HILL"	18.068	-76.597	90	0	0	0	0	0	0	0	2	0	0	0	0	0	0	0	0	0	0	0	2	0	0	0	0
6774	0	2005	8	30	8	53	17.4	10	4.7	0	0	4.7	0	0	0	6	INDIA	0	"INDIA: MAHARASHTRA: AMBEGHAR, DICHOLI, KISRULE"	17.067	73.773	60	0	0	0	0	0	0	0	1	0	0	0	0	0	0	0	0	0	0	0	1	0	0	0	0
2892	0	1909	10	31	10	23	    	0	4.7	0	0	0	0	0	4.7	0	MEXICO	0	"MEXICO:  GUERRERO,MICHOACAN"	17	-101.2	150	0	0	0	0	0	0	0	3	0	0	0	0	0	0	0	0	0	0	0	0	0	0	0	0
5091	0	1986	2	3	15	12	46.7	16	4.7	0	0	4.7	0	0	0	0	GUATEMALA	0	"GUATEMALA:  IXCHIGUAN, SAN MARCOS PROVINCE"	15.075	-92.072	100	0	0	0	0	0	0	0	2	500	3	500	3	0	0	0	0	0	0	0	2	500	3	0	0
4845	0	1979	10	9	7	49	29.2	33	4.7	0	4.7	5	0	0	0	7	GUATEMALA	0	GUATEMALA	14.321	-90.082	100	0	0	0	0	40	1	0	2	0	0	0	0	0	0	0	0	40	1	0	2	0	0	0	0
5312	0	1991	11	22	0	40	23.9	10	4.7	0	0	4.7	0	0	0	0	YEMEN	0	YEMEN:  WESTERN  ARABIAN PENINSULA	13.887	44.068	60	11	1	0	0	40	1	0	2	17	1	87	2	11	1	0	0	40	1	0	2	17	1	87	2
5302	0	1991	8	9	9	33	49.6	5	4.7	0	4.7	4.7	0	0	0	0	COSTA RICA	0	COSTA RICA:  CARTAGO	9.737	-84.054	100	0	0	0	0	0	0	0	1	0	0	30	1	0	0	0	0	0	0	0	1	0	0	30	1
2389	0	1889	0	0	0	0	    	0	4.7	0	0	0	0	0	4.7	8	COTE D'IVOIRE	0	COTE D'IVOIRE:  BAIBU	6.8	-6.7	10	0	0	0	0	0	0	0	2	0	0	0	0	0	0	0	0	0	0	0	0	0	0	0	0
5618	0	2002	1	17	20	1	29.2	15	4.7	0	0	4.7	0	0	0	0	RWANDA	0	RWANDA:  GISENYI	-1.684	29.077	10	0	1	0	0	0	0	0	2	307	0	0	0	1001	2	0	0	400	3	0	3	307	3	0	0
5764	0	2004	2	24	2	14	34	10	4.7	0	0	4.7	0	0	0	0	BURUNDI	0	BURUNDI:  RUYAGA	-3.393	29.558	10	3	1	0	0	0	0	0	1	24	1	0	0	3	1	0	0	0	0	0	1	24	1	0	0
5300	0	1991	7	23	19	44	50.2	5	4.7	0	4.7	5	0	0	0	5	PERU	0	"PERU:  MACA, CHIVAY, YANQUE"	-15.679	-71.574	160	92	2	0	0	30	1	0	2	0	3	0	0	92	2	0	0	30	1	0	2	0	3	0	0
5802	0	2004	9	21	13	32	30.8	10	4.8	4.8	0	4.9	4.8	0	0	6	POLAND	0	"POLAND: SUWALKI; RUSSIA: KALININGRAD, SVETLOGORSK"	54.841	19.912	120	0	0	0	0	3	1	0	1	0	0	0	0	0	0	0	0	3	1	0	1	0	0	0	0
7872	0	2008	2	27	0	56	47.8	18	4.8	0	0	4.8	5.3	0	0	0	UK	0	UNITED KINGDOM:  ENGLAND:  LINCOLNSHIRE	53.403	-0.332	120	0	0	0	0	1	1	0	1	0	0	0	0	0	0	0	0	1	1	0	1	0	0	0	1
5652	0	2002	9	22	23	53	14.6	9	4.8	0	0	4.8	5	0	0	6	UK	0	"UNITED KINGDOM:  MANSFIELD, DUDLEY"	52.52	-2.15	120	0	0	0	0	1	1	0	1	0	0	0	0	0	0	0	0	1	1	0	1	0	0	0	0
5573	0	2002	7	22	5	45	3	17	4.8	0	0	4.8	0	0	0	0	GERMANY	0	"GERMANY:  AACHEN, COLOGNE, SPANGDAHLEM"	50.889	6.103	120	0	0	0	0	0	0	0	1	0	0	0	0	0	0	0	0	0	0	0	1	0	0	0	0
7417	0	2006	11	23	7	15	20.5	10	4.8	0	0	4.8	4.6	0	0	0	HUNGARY	0	HUNGARY:  BEREGDAROC	48.195	22.46	110	0	0	0	0	0	0	0	1	0	0	0	0	0	0	0	0	0	0	0	1	0	0	0	0
5832	0	2004	12	5	1	52	37.2	10	4.8	4.8	0	4.2	5.5	0	0	5	GERMANY	0	"GERMANY:  EMMENDINGEN, FREIBURG IM BREISGAU"	48.115	8.077	120	0	0	0	0	0	0	0	1	0	0	0	0	0	0	0	0	0	0	0	1	0	0	0	0
2311	0	1882	7	17	7	51	    	12	4.8	0	0	0	0	0	4.8	7	SLOVENIA	0	BALKANS NW:  SLOVENIA:  LJUBLJANA: W	46	14.2	130	0	0	0	0	0	0	0	2	0	0	0	0	0	0	0	0	0	0	0	0	0	0	0	0
10410	0	2019	5	17	22	24	52	17	4.8	0	0	4.8	0	0	0	0	CHINA	0	CHINA:  JILIN PROVINCE:  SONGYUAN	45.205	124.611	30	0	0	0	0	0	0	0	1	0	0	167	3	0	0	0	0	0	0	0	1	0	0	167	3
4593	0	1972	2	4	2	42	18.9	25	4.8	0	0	4.8	0	0	4.8	0	ITALY	0	"ITALY:  CENTRAL, ANCONA"	43.8	13.3	130	1	1	0	0	2	1	0	2	0	0	0	0	0	0	0	0	0	0	0	0	0	0	0	0
4716	0	1976	3	25	11	55	39.4	18	4.8	0	0	4.8	0	0	4.8	0	TURKEY	0	TURKEY	41.13	43.01	140	1	1	0	0	0	0	0	2	0	0	0	0	0	0	0	0	0	0	0	0	0	0	0	0
4520	0	1970	3	14	1	51	44.4	23	4.8	0	4.8	0	0	0	0	0	IRAN	0	"IRAN:  BADALAN,QERIS,BATCHI,DIZEH,PESAK,HESAR"	38.6	44.7	140	5	1	0	0	0	0	0	2	0	3	0	0	5	1	0	0	0	0	0	2	0	3	0	0
4502	0	1969	10	2	4	56	46.5	10	4.8	0	4.8	5.2	5.6	0	0	8	USA	CA	CALIFORNIA:  SANTA ROSA	38.467	-122.692	150	1	1	0	0	0	0	8.35	3	0	0	0	0	1	1	0	0	0	0	8.35	3	0	0	0	0
5515	0	1999	2	2	13	45	16.8	10	4.8	0	0	4.8	0	0	0	7	SPAIN	0	"SPAIN:  MULA, PUEBLA DE MULA"	38.193	-1.566	130	0	0	0	0	20	1	44.004	4	0	0	0	3	0	0	0	0	20	1	44.004	4	0	0	0	3
7774	Tsu	1940	1	15	13	19	24	15	4.8	0	4.8	0	0	0	0	8	ITALY	0	ITALY	38.1	13.5	130	0	0	0	0	0	0	0	0	0	0	0	0	0	0	0	0	0	0	0	0	0	0	0	0
4367	0	1966	5	2	23	13	    	41	4.8	0	0	0	0	0	4.8	0	TURKEY	0	TURKEY	38	42.6	140	0	0	0	0	0	0	0	2	0	0	0	0	0	0	0	0	0	0	0	0	0	0	0	0
5109	0	1986	9	15	11	41	27.8	10	4.8	0	4.8	4.9	0	0	0	7	GREECE	0	"GREECE:  S, MESSINIA, BERGA, NEDOUSA"	36.93	22.175	130	0	0	0	0	37	1	0	1	0	0	0	0	0	0	0	0	37	1	0	1	0	0	0	0
3778	0	1944	4	5	0	0	    	7	4.8	0	0	0	0	0	4.8	8	IRAN	0	IRAN:  GORGAN	36.8	54.5	140	20	1	0	0	0	0	0	2	0	0	0	0	0	0	0	0	0	0	0	0	0	0	0	0
10034	0	2013	7	17	3	0	56.5	10	4.8	0	0	4.8	0	0	0	0	ALGERIA	0	ALGERIA:  HAMMAM MELOUANE	36.534	3.086	15	0	0	0	0	11	1	0	1	0	0	0	3	0	0	0	0	11	1	0	1	0	0	0	3
7697	0	2007	10	26	6	50	6.6	10	4.8	0	4.8	5.3	0	0	0	0	PAKISTAN	0	PAKISTAN:  GHANCHE	35.304	76.753	60	1	1	0	0	12	1	0	0	0	0	0	0	1	1	0	0	12	1	0	0	0	0	0	0
7237	0	2006	4	4	9	12	23.4	10	4.8	0	0	4.8	0	0	0	0	PAKISTAN	0	PAKISTAN:  BATGRAM	34.6	73.136	60	0	0	0	0	28	1	0	1	0	2	0	2	0	0	0	0	28	1	0	1	0	2	0	0
5146	0	1987	10	4	10	59	38.1	8	4.8	0	4.8	5.2	0	0	0	0	USA	CA	"CALIFORNIA:  WHITTIER, PASADENA"	34.07	-118.1	150	1	1	0	0	0	2	0	2	0	0	0	0	1	1	0	0	0	2	0	2	0	0	0	0
4893	0	1980	8	23	21	50	3	33	4.8	0	4.8	5.2	0	0	0	0	INDIA	0	INDIA:  KASHMIR	32.834	75.629	60	0	1	0	0	0	0	0	1	0	0	0	0	0	1	0	0	0	0	0	1	0	0	0	0
5830	0	2004	11	19	23	49	37.1	37	4.8	0	0	4.8	0	0	0	0	IRAN	0	IRAN:  W	32.023	48.836	140	0	0	0	0	0	0	0	1	0	0	0	0	0	0	0	0	0	0	0	1	0	0	0	0
558	0	1372	8	16	0	0	0	0	4.8	0	4.8	0	0	0	0	6	CHINA	0	CHINA:  JIANGSU PROVINCE:  NANJING	32	118.8	30	16	1	0	0	0	0	0	0	0	0	0	0	16	1	0	0	0	0	0	0	0	0	0	0
7703	0	2007	11	20	5	20	3.4	7	4.8	0	0	4.8	4.9	0	0	0	IRAN	0	"IRAN:  WESTERN:  QAL' EH-YE TOL, KHUZESTAN"	31.68	49.93	140	0	0	0	0	30	1	0	1	0	1	0	1	0	0	0	0	30	1	0	1	0	1	0	0
8092	Tsu	1531	1	0	0	0	0	0	4.8	0	4.8	0	0	0	0	6	CHINA	0	CHINA:  JIANGSU PROVINCE	30.7	117.5	30	0	0	0	0	0	0	0	1	0	0	0	0	0	0	0	0	0	0	0	1	0	0	0	0
7908	0	1327	9	0	0	0	0	0	4.8	0	4.8	0	0	0	0	6	CHINA	0	CHINA:  SICHUAN PROVINCE	30.1	102.7	30	0	1	0	0	0	0	0	0	0	0	0	0	0	1	0	0	0	0	0	0	0	0	0	0
4581	0	1971	8	26	6	55	8.7	45	4.8	0	0	4.8	0	0	4.8	0	IRAN	0	IRAN:  BABA KELU	30	50.7	140	0	0	0	0	0	0	0	3	0	0	0	0	0	0	0	0	0	0	0	0	0	0	0	0
7984	Tsu	1855	0	0	0	0	0	0	4.8	0	4.8	0	0	0	0	6	CHINA	0	CHINA:  SICHUAN PROVINCE	29.2	108.1	30	0	0	0	0	0	0	0	1	0	0	0	0	0	0	0	0	0	0	0	1	0	0	0	0
6766	0	2005	8	5	14	14	48	42	4.8	0	4.8	5.2	0	0	0	0	CHINA	0	CHINA:  YUNNAN PROVINCE:  HUIZE	26.569	103.036	30	0	0	0	0	9	1	0	2	3700	4	3700	4	0	0	0	0	9	1	0	2	3700	4	0	0
9052	0	2010	2	25	4	56	51.9	36	4.8	0	4.8	5.2	0	0	0	0	CHINA	0	CHINA:  YUNNAN PROVINCE	25.523	101.903	30	0	0	0	0	11	1	0	1	0	0	0	1	0	0	0	0	11	1	0	1	0	0	0	1
9830	0	2011	2	1	7	11	26	31	4.8	0	0	4.8	0	0	0	0	CHINA	0	CHINA:  YUNNAN PROVINCE:  PINGYUAN	24.693	97.943	30	0	0	0	0	1	1	0	2	0	0	700	3	0	0	0	0	1	1	0	2	0	0	700	3
9834	0	2008	12	25	20	20	51.5	35	4.8	4.8	0	4.7	0	0	0	0	CHINA	0	CHINA:  YUNNAN PROVINCE:  SIMAO	23.97	97.569	30	0	0	0	0	19	1	0	2	30	1	5400	4	0	0	0	0	19	1	0	2	30	1	5400	4
9775	0	2010	9	10	17	24	16.6	10	4.8	0	0	4.8	0	0	0	5	BANGLADESH	0	BANGLADESH:  NARAYANGANJ	23.407	90.648	60	0	0	0	0	0	0	0	1	0	0	0	0	0	0	0	0	0	0	0	1	0	0	0	0
5842	0	2005	1	25	16	30	38.9	12	4.8	0	0	4.8	0	0	0	0	CHINA	0	CHINA:  YUNNAN PROVINCE:  SIMAO	22.526	100.709	30	0	0	0	0	3	1	0	1	0	0	0	0	0	0	0	0	3	1	0	1	0	0	0	0
10241	0	2017	4	10	23	53	58	10	4.8	0	0	4.8	0	0	0	0	EL SALVADOR	0	"EL SALVADOR: SAN SALVADOR,SOYAPANGO"	13.753	-89.16	100	1	1	0	0	3	1	0	1	0	0	0	0	1	1	0	0	3	1	0	1	0	0	0	0
3176	0	1921	9	16	0	51	    	0	4.8	0	0	0	0	0	4.8	8	CENTRAL AFRICAN REPUBLIC	0	CENTRAL AFRICAN REPUBLIC:  NOLA	3.8	16.3	10	0	0	0	0	0	0	0	1	0	0	0	0	0	0	0	0	0	0	0	0	0	0	0	0
6824	0	2005	10	24	17	35	33.8	35	4.8	0	0	4.8	0	0	0	6	ECUADOR	0	ECUADOR:  BAEZA	-0.507	-77.745	160	0	0	0	0	0	0	0	1	0	0	0	0	0	0	0	0	0	0	0	1	0	0	0	0
10228	0	2016	9	23	16	12	1	10	4.8	0	0	4.8	0	0	0	0	RWANDA	0	RWANDA:  RISUZI; CONGO:  UKAVU	-2.65	29.06	10	8	1	0	0	0	1	0	1	22	1	0	0	8	1	0	0	0	1	0	1	22	1	0	0
5118	0	1986	11	30	5	19	48.2	5	4.8	0	4.8	4.9	0	0	0	0	BRAZIL	0	"BRAZIL:  JOAO CAMARA, NATAL"	-5.494	-35.769	160	1	1	0	0	0	0	5	2	1500	4	0	0	1	1	0	0	0	0	5	2	1500	4	0	0
5251	0	1990	7	6	0	16	20.4	14	4.8	0	4.8	5.8	0	0	0	0	INDONESIA	0	"INDONESIA:  JAVA:  W, KUNINGAN, MAJALENGA"	-6.904	108.12	60	0	0	0	0	103	3	0	3	10300	4	0	0	0	0	0	0	103	3	0	3	10300	4	0	0
5844	0	2005	2	2	5	55	18.2	15	4.8	0	0	4.8	0	0	0	0	INDONESIA	0	INDONESIA:  JAVA:  GARUT	-7.037	107.819	60	1	1	0	0	0	2	0	2	0	2	0	2	1	1	0	0	0	2	0	2	0	2	0	0
7617	0	2007	9	9	18	36	37.6	35	4.8	0	0	4.8	0	0	0	0	INDONESIA	0	INDONESIA:  SITUBONDO	-7.783	114.338	60	0	0	0	0	13	1	0	1	0	0	0	0	0	0	0	0	13	1	0	1	0	0	0	0
4918	0	1981	4	18	0	32	39.8	38	4.8	0	4.8	5.3	0	0	0	0	PERU	0	PERU:  AYACUCHO	-13.144	-74.376	160	8	1	0	0	15	1	0	2	0	0	0	0	8	1	0	0	15	1	0	2	0	0	0	0
5110	0	1986	10	5	18	53	20.9	5	4.8	0	4.8	4.9	0	0	0	4	SOUTH AFRICA	0	"SOUTH AFRICA:  MOUNT FRERE, DURBAN"	-30.546	28.737	10	0	0	0	0	0	0	0	1	0	0	0	0	0	0	0	0	0	0	0	1	0	0	0	0
5727	0	2003	9	29	18	22	32	32	4.8	0	0	4.8	4.9	0	0	0	NEW ZEALAND	0	NEW ZEALAND:  CHRISTCHURCH	-43.34	173.04	170	0	0	0	0	0	0	0	1	0	0	0	0	0	0	0	0	0	0	0	1	0	0	0	0
5784	0	2004	5	30	2	52	12.2	14	4.9	4.9	0	4.9	0	0	0	0	RUSSIA	0	"RUSSIA:  SAKHALIN, YUZHNO, SAKHALINSK"	47.311	142.12	50	0	0	0	0	0	0	0	1	0	0	46	1	0	0	0	0	0	0	0	1	0	0	46	1
3065	0	1916	10	28	8	15	    	11	4.9	0	0	0	0	0	4.9	7	SLOVENIA	0	BALKANS NW:  SLOVENIA:  GORNJI GRAD	46.3	14.6	130	0	0	0	0	0	0	0	2	0	0	0	0	0	0	0	0	0	0	0	0	0	0	0	0
1825	0	1840	8	27	12	5	    	8	4.9	0	0	0	0	0	4.9	7	SLOVENIA	0	BALKANS NW:  SLOVENIA:  LJUBLJANA	46.2	14.7	130	0	0	0	0	0	0	0	2	0	0	0	0	0	0	0	0	0	0	0	0	0	0	0	0
1872	0	1845	12	21	20	40	    	7	4.9	0	0	0	0	0	4.9	7	SLOVENIA	0	BALKANS NW:  SLOVENIA:  LJUBLJANA	46.1	14.5	130	0	0	0	0	0	0	0	2	0	0	0	0	0	0	0	0	0	0	0	0	0	0	0	0
4293	0	1963	5	19	10	0	    	13	4.9	0	0	0	0	0	4.9	7	SLOVENIA	0	BALKANS NW:  SLOVENIA:  LJUBLJANA	46.1	14.8	130	0	0	0	0	0	0	0	2	0	0	0	0	0	0	0	0	0	0	0	0	0	0	0	0
7235	0	2006	3	31	12	23	17.8	10	4.9	0	0	4.9	0	0	0	0	CHINA	0	"CHINA:  JILIN PROVINCE:  JILIN, SONGYUAN"	44.624	124.122	30	0	0	0	0	0	0	0	1	0	2	0	0	0	0	0	0	0	0	0	1	0	2	0	0
10292	0	2018	1	4	10	46	12	10	4.9	0	0	4.9	0	0	0	0	MONTENEGRO	0	BALKANS NW:  MONTENEGRO: BERANE	42.658	19.883	130	0	0	0	0	0	1	0	2	0	0	0	3	0	0	0	0	0	1	0	2	0	0	0	3
5289	0	1991	5	15	14	28	50.1	14	4.9	0	0	4.9	0	0	0	5	GEORGIA	0	GEORGIA:  KHEKHETI	42.565	43.349	40	0	1	0	0	0	0	0	1	45	1	0	0	0	1	0	0	0	0	0	1	45	1	0	0
243	0	863	4	0	0	0	0	10	4.9	0	0	0	0	0	4.9	0	TURKEY	0	TURKEY; ARMENIA:  DVINA	40	44.6	140	0	3	0	0	0	0	0	2	0	0	0	0	0	0	0	0	0	0	0	0	0	0	0	0
4840	0	1979	7	18	13	12	2.5	10	4.9	0	4.9	5.2	5.2	0	0	0	TURKEY	0	"TURKEY:  DURSUNBEY, ANATOLIA"	39.672	28.66	140	0	0	0	0	0	0	0	2	200	3	0	0	0	0	0	0	0	0	0	2	200	3	0	0
4549	0	1970	7	2	2	24	35.7	27	4.9	0	4.9	4.8	0	0	0	0	TURKEY	0	TURKEY:  SIVAS	38.8	36.7	140	1	1	0	0	0	0	0	2	150	3	150	3	1	1	0	0	0	0	0	2	150	3	0	0
5621	0	2002	2	3	20	59	27.6	44	4.9	0	0	4.9	0	0	0	0	TAJIKISTAN	0	TAJIKISTAN:  ROGHUN	38.773	69.924	40	0	0	0	0	0	2	0	1	0	0	0	2	0	0	0	0	0	2	0	1	0	0	0	2
4767	0	1977	3	25	2	39	58.2	21	4.9	0	4.9	5.2	0	0	5.2	0	TURKEY	0	TURKEY	38.56	40.02	140	30	1	0	0	0	0	0	3	0	0	0	0	0	0	0	0	0	0	0	0	0	0	0	0
3002	0	1914	5	8	18	1	0	0	4.9	0	4.9	0	0	0	0	10	ITALY	0	"ITALY:  CATANIA, ETNA"	37.7	15.2	130	120	3	0	0	0	0	0	3	223	3	0	0	120	3	0	0	0	0	0	3	223	3	0	0
4741	0	1976	8	19	1	12	36.7	3	4.9	0	4.9	5	0	0	5.6	4	TURKEY	0	TURKEY:  DENIZLI	37.7	28.89	140	4	1	0	0	50	1	0	2	1800	4	0	0	0	0	0	0	0	0	0	0	0	0	0	0
4782	0	1977	11	9	11	20	32.8	33	4.9	0	0	4.9	0	0	5	0	IRAN	0	IRAN:  GORGAN	36.73	55.04	140	0	0	0	0	0	0	0	2	0	0	0	0	0	0	0	0	0	0	0	0	0	0	0	0
10037	0	2013	5	19	9	7	26.5	7	4.9	0	4.9	5	5.5	0	0	0	ALGERIA	0	ALGERIA:  ALGIERS	36.703	5.261	15	0	0	0	0	5	1	0	1	0	0	0	2	0	0	0	0	5	1	0	1	0	0	0	2
7231	0	2006	3	20	19	44	25.1	10	4.9	0	4.9	5	0	0	0	0	ALGERIA	0	ALGERIA:  NORTHERN	36.623	5.328	15	4	1	0	0	9	1	0	0	62	2	62	2	4	1	0	0	9	1	0	0	62	2	0	0
10315	0	2014	12	23	8	0	8	7	4.9	0	0	0	4.9	0	0	0	ALGERIA	0	ALGERIA:  BLIDA	36.492	3.025	15	0	0	0	0	0	1	0	1	0	0	0	1	0	0	0	0	0	1	0	1	0	0	0	1
4430	0	1968	2	25	0	0	0	0	4.9	0	4.9	0	0	0	0	8	ALGERIA	0	ALGERIA:  EL ALEN (BABORD)	36.08	5.07	15	1	1	0	0	4	1	0	2	100	2	0	0	1	1	0	0	4	1	0	2	100	2	0	0
4967	0	1983	3	25	11	57	49.3	33	4.9	0	4.9	5.2	0	0	0	0	IRAN	0	"IRAN:  TEHRAN, DAMAVOND, AMOI"	35.953	52.264	140	30	1	0	0	61	2	5	2	0	0	0	3	30	1	0	0	61	2	5	2	0	0	0	3
10377	0	2018	11	28	14	44	25	22	4.9	4.9	0	0	0	0	0	0	AFGHANISTAN	0	AFGHANISTAN:  HINDU KUSH:  BAGHLAN	35.817	68.682	40	0	0	0	0	9	1	0	1	0	0	60	2	0	0	0	0	9	1	0	1	0	0	60	2
10288	0	2017	12	20	19	57	37	10	4.9	0	0	4.9	0	0	0	0	IRAN	0	IRAN:  ALBORZ	35.654	50.949	140	2	1	0	0	115	3	0	0	0	0	0	0	2	1	0	0	115	3	0	0	0	0	0	0
4803	0	1978	6	3	20	3	52.5	4	4.9	0	4.9	5.2	0	0	5.7	4	JAPAN	0	JAPAN:  S HONSHU:  HIROSHIMA	35.1	132.6	30	0	0	0	0	1	1	0	2	0	0	0	0	0	0	0	0	0	0	0	0	0	0	0	0
8795	0	2009	12	17	23	45	36.4	7	4.9	0	0	4.9	0	0	0	0	JAPAN	0	JAPAN:  HONSHU:  ITO	34.921	139.261	30	0	0	0	0	7	1	0	1	0	0	0	0	0	0	0	0	7	1	0	1	0	0	20	1
5453	0	1997	3	19	19	57	11.9	50	4.9	0	0	4.9	0	0	0	0	PAKISTAN	0	"PAKISTAN:  BAJAUR, CHITRAL"	34.872	71.62	60	15	1	0	0	0	0	0	1	0	0	0	0	0	0	0	0	0	0	0	0	0	0	0	0
9803	0	2010	11	6	3	52	20	5	4.9	0	0	4.9	4.7	0	0	0	IRAN	0	IRAN:  DORUD-RAZAN	33.37	48.94	140	0	0	0	0	104	3	0	1	0	0	0	2	0	0	0	0	104	2	0	1	0	0	0	2
8381	0	2009	5	19	19	29	48.9	21	4.9	0	0	4.9	0	0	0	0	INDIA	0	INDIA:  KASHMIR	33.198	75.787	60	0	0	0	0	0	0	0	1	0	0	0	0	0	0	0	0	0	0	0	1	0	0	100	2
7229	0	2006	3	10	7	50	14.3	10	4.9	0	0	4.9	0	0	0	0	PAKISTAN	0	PAKISTAN:  MIRPUR DISTRICT	33.129	73.887	60	1	1	0	0	22	1	0	0	0	0	0	0	1	1	0	0	22	1	0	0	0	0	0	0
9950	0	2012	7	20	12	11	52	10	4.9	0	0	4.9	0	0	0	0	CHINA	0	CHINA:  JIANGSU PROVINCE	32.978	119.593	30	1	1	0	0	2	1	0	1	0	0	0	0	1	1	0	0	2	1	0	1	0	0	0	0
4892	0	1980	8	23	21	36	51.6	25	4.9	0	4.9	5.2	0	0	0	0	INDIA	0	INDIA:  KASHMIR	32.913	75.633	60	15	1	0	0	40	1	0	2	0	3	0	3	15	1	0	0	40	1	0	2	0	3	0	0
7767	0	2008	2	13	20	55	31.5	14	4.9	0	4.9	4.5	4.2	0	0	0	IRAN	0	IRAN:  NASIRABAD	31.73	51.2	140	0	0	0	0	10	1	0	1	0	0	0	0	0	0	0	0	10	1	0	1	0	0	70	2
8058	0	1961	3	7	19	0	48	0	4.9	0	4.9	0	0	0	0	7	CHINA	0	CHINA:  HUBEI PROVINCE	30.5	110	30	0	0	0	0	0	0	0	2	25	1	0	0	0	0	0	0	0	0	0	2	25	1	0	0
5849	0	2005	3	2	11	12	14.9	52	4.9	0	0	4.9	0	0	0	0	PAKISTAN	0	PAKISTAN:  QUETTA	30.378	68.038	60	0	0	0	0	1	1	0	1	0	0	0	0	0	0	0	0	1	1	0	1	0	0	0	0
10395	0	2019	2	25	5	15	59	10	4.9	0	0	4.9	0	0	0	0	CHINA	0	CHINA:  SICHUAN PROVINCE: RONGXIAN	29.498	104.632	30	2	1	0	0	12	1	2	2	9	1	10911	4	2	1	0	0	12	1	2	2	9	1	10911	4
7321	0	2006	7	22	1	10	29	56	4.9	4.9	4.6	5	0	0	0	0	CHINA	0	CHINA:  YANJIN	27.995	104.138	30	22	1	0	0	106	3	0	0	0	0	0	0	22	1	0	0	106	3	0	0	0	0	0	0
9965	0	2013	2	19	2	47	1.2	10	4.9	4.9	0	0	4.9	0	0	0	CHINA	0	CHINA:  YUNNAN PROVINCE:  QIAOJIA	27.226	103.071	30	0	0	0	0	8	1	0	2	72	2	949	3	0	0	0	0	8	1	0	2	72	2	949	3
9771	0	2010	8	29	0	53	31.4	35	4.9	0	0	4.9	0	0	0	0	CHINA	0	"CHINA:  SICHUAN PROVINCE: NINGANG, ZIAOJIA"	27.197	103.005	30	0	0	0	0	14	1	0	3	0	0	1001	4	0	0	0	0	14	1	0	3	0	0	1001	4
8431	0	2009	11	1	21	7	20.6	25	4.9	4.9	0	5	0	0	0	0	CHINA	0	CHINA:  YUNNAN PROVINCE	25.962	100.825	30	0	0	0	0	28	1	0	0	1000	3	1000	3	0	0	0	0	28	1	0	0	1000	3	30000	4
5137	0	1987	8	2	9	7	35.5	29	4.9	0	0	4.9	0	0	0	4	CHINA	0	CHINA:  GANZHOU PROVINCE:  XUNWU	24.924	115.608	30	0	0	0	0	84	2	0	3	37000	4	0	0	0	0	0	0	84	2	0	3	37000	4	0	0
10366	0	2016	7	31	9	18	17	25	4.9	0	0	4.9	0	0	0	0	CHINA	0	CHINA:  GUANGXI PROVINCE	24.134	111.478	30	0	0	0	0	0	0	0	2	0	0	200	3	0	0	0	0	0	0	0	2	0	0	200	3
5854	0	2005	3	14	9	43	49.1	10	4.9	4.9	4.1	4.9	5.1	0	0	0	INDIA	0	"INDIA:  MAHARASHTRA:  KOLHAPUR, RATNAGIRI, SATARA"	17.145	73.73	60	0	0	0	0	45	1	0	2	0	0	0	0	0	0	0	0	45	1	0	2	0	0	0	0
5104	0	1986	7	18	17	22	38.2	7	4.9	0	4.9	5.9	0	0	0	0	VENEZUELA	0	"VENEZUELA:  CHURUGUARA,  FALCON, LARA"	10.77	-69.428	160	1	1	0	0	0	0	0	1	30	1	0	0	1	1	0	0	0	0	0	1	30	1	0	0
10323	0	2018	4	3	9	41	27	10	4.9	0	0	4.9	0	0	0	0	VENEZUELA	0	VENEZUELA:  MERIDA	8.346	-71.664	160	0	0	0	0	0	0	0	2	0	0	28	1	0	0	0	0	0	0	0	2	0	0	28	1
7462	0	2007	2	16	7	15	54	79	4.9	0	0	4.9	0	0	0	0	PHILIPPINES	0	PHILIPPINES:  MINDANAO	6.614	126.24	170	0	0	0	0	0	0	0	1	0	0	0	0	0	0	0	0	0	0	0	1	0	0	0	0
2199	0	1872	4	14	23	0	    	0	4.9	0	0	0	0	0	4.9	7	GHANA	0	GHANA:  ACCRA	5.5	-0.4	10	0	0	0	0	0	0	0	2	0	0	0	0	0	0	0	0	0	0	0	0	0	0	0	0
4968	0	1983	3	31	13	12	52.6	22	4.9	0	4.9	5.5	0	0	0	8	COLOMBIA	0	"COLOMBIA:  SW, POPAYAN"	2.461	-76.686	160	350	3	0	0	1200	4	410.9	4	0	0	0	0	350	3	0	0	1200	4	410.9	4	0	0	0	0
10340	0	2018	6	12	9	35	26	10	4.9	4.9	0	0	0	0	0	0	COLOMBIA	0	COLOMBIA:  PASTO	1.032	-77.259	160	2	1	0	0	0	0	0	1	1	1	0	1	2	1	0	0	0	0	0	1	1	1	0	1
7768	0	2008	2	14	2	7	46.7	10	4.9	0	4.9	5.4	0	0	0	0	RWANDA	0	RWANDA:  GISENYI	-2.404	28.918	10	1	1	0	0	109	3	0	1	0	0	5	1	1	1	0	0	109	3	0	1	0	0	5	1
5244	0	1990	6	9	1	14	34.5	26	4.9	0	4.9	5.5	0	0	0	6	PERU	0	"PERU:  N, RIOJA, MOYOBAMBA, IQUITOS"	-6.062	-77.136	160	1	1	0	0	0	0	0	1	14	1	0	0	1	1	0	0	0	0	0	1	14	1	0	0
5745	0	2003	12	5	23	41	27.4	33	4.9	0	4.9	5.4	0	0	0	0	INDONESIA	0	"INDONESIA:  FLORES, RUTENG"	-8.137	120.524	60	0	0	0	0	0	0	0	1	0	0	0	1	0	0	0	0	0	0	0	1	0	0	0	1
4902	0	1980	11	12	6	58	11.6	71	4.9	0	0	4.9	0	0	0	0	PERU	0	PERU:  S CENTRAL	-13.347	-74.545	160	7	1	0	0	0	0	1	2	0	0	0	0	7	1	0	0	0	0	1	2	0	0	0	0
10271	Tsu	1975	12	16	21	1	39	33	4.9	0	0	4.9	0	0	0	0	FIJI	0	FIJI ISLANDS	-18.672	178.464	170	0	0	0	0	0	0	0	0	0	0	0	0	0	0	0	0	0	0	0	0	0	0	0	0
5004	0	1983	11	8	0	49	32.1	10	5	0	0	5	0	0	0	7	BELGIUM	0	BELGIUM	50.696	5.346	120	2	1	0	0	30	1	50	4	0	3	0	0	2	1	0	0	30	1	50	4	0	3	0	0
5681	0	2003	2	22	20	41	3.4	10	5	5	0	5	5.7	0	0	0	FRANCE	0	"FRANCE:  BACCARAT, COLMAR, THANN; GERMANY:  EDIGEN"	48.342	6.57	120	0	0	0	0	0	0	0	1	0	0	0	0	0	0	0	0	0	0	0	1	0	0	0	0
913	0	1628	6	17	18	0	0	6	5	0	0	0	0	0	5	8	SLOVENIA	0	"BALKANS NW:  SLOVENIA:  KRISKO,BRESTANICA"	46	15.5	130	0	0	0	0	0	0	0	2	0	0	0	0	0	0	0	0	0	0	0	0	0	0	0	0
1148	0	1699	2	11	0	0	    	6	5	0	0	0	0	0	5	8	SLOVENIA	0	BALKANS NW:  SLOVENIA:  LJUBLJANA	45.6	15.3	130	0	2	0	0	0	0	0	3	0	0	0	0	0	0	0	0	0	0	0	0	0	0	0	0
5005	0	1983	11	9	16	29	51.6	37	5	0	5	5.1	0	0	0	8	ITALY	0	"ITALY:  N, PARMA"	44.689	10.317	130	0	0	0	0	100	2	0	2	0	0	0	0	0	0	0	0	100	2	0	2	0	0	0	0
6385	Tsu	1959	4	9	12	24	20	40	5	0	5	0	0	0	0	0	RUSSIA	0	RUSSIA:  S. KURIL ISLANDS	44.3	149	50	0	0	0	0	0	0	0	0	0	0	0	0	0	0	0	0	0	0	0	0	0	0	0	0
5208	0	1989	8	3	7	42	40.8	18	5	0	5	5	0	0	0	6	RUSSIA	0	"RUSSIA:  GROZNYY, BUYNAKSK"	43.522	45.362	40	1	1	0	0	0	0	0	2	0	0	0	0	0	0	0	0	0	0	0	0	0	0	0	0
2941	0	1911	7	24	0	0	    	0	5	0	0	0	0	0	5	7	FRANCE	0	"FRANCE:  NAY,BENEJACQ,ARAMITS,ARROS,GAN,BOSDARROS"	43.2	0.2	120	0	0	0	0	0	0	0	2	0	0	0	0	0	0	0	0	0	0	0	0	0	0	0	0
5080	0	1985	9	28	14	50	15.2	7	5	0	0	5	0	0	0	7	MACEDONIA	0	BALKANS NW:  MACEDONIA:  DEMIR KAPIJA-NEGOTINO	41.581	22.254	130	0	0	0	0	16	1	0	2	500	3	0	0	0	0	0	0	16	1	0	2	500	3	0	0
10098	0	2014	5	19	0	59	6	10	5	5	0	0	0	0	0	4	ALBANIA	0	ALBANIA:  BELSH	41.115	19.777	130	0	0	0	0	0	0	0	1	0	0	0	1	0	0	0	0	0	0	0	1	0	0	0	1
8046	0	1956	12	31	21	33	22	0	5	0	5	0	0	0	0	6	CHINA	0	CHINA:  HEBEI PROVINCE	40.5	115.5	30	0	0	0	0	0	0	0	1	0	1	0	0	0	0	0	0	0	0	0	1	0	1	0	0
5546	0	1999	11	29	4	10	40.9	10	5	0	0	5	5.3	0	0	0	CHINA	0	CHINA:  NORTHEASTERN:  SANJIANFANG	40.459	122.889	30	0	0	0	0	0	0	0	1	160	3	0	0	0	0	0	0	0	0	0	1	160	3	0	0
3434	0	1930	12	2	13	29	    	4	5	0	0	0	0	0	5	9	ALBANIA	0	"ALBANIA:  VLORE, TEPELENE"	40.3	19.6	130	25	1	0	0	0	0	0	2	0	0	0	0	0	0	0	0	0	0	0	0	0	0	0	0
8128	0	2008	4	26	6	40	10.6	1	5	5	4.8	4.8	4.7	0	0	0	USA	0	NEVADA:  FALLON	39.52	-119.93	150	0	0	0	0	0	0	0	1	0	0	0	1	0	0	0	0	0	0	0	1	0	0	0	1
4442	0	1968	6	9	0	0	0	0	5	0	0	0	0	0	5	7	ARMENIA	0	ARMENIA:  ZANGEZUR	39.1	46.1	40	0	0	0	0	0	0	0	2	0	0	0	0	0	0	0	0	0	0	0	0	0	0	0	0
4458	0	1968	9	1	5	39	    	24	5	0	0	0	0	0	5	8	ARMENIA	0	ARMENIA:  ZANGEZUR	39.1	46.2	40	0	0	0	0	0	0	0	3	0	0	0	0	0	0	0	0	0	0	0	0	0	0	0	0
10187	0	2016	7	1	14	59	15	10	5	5	0	0	0	0	0	0	TAJIKISTAN	0	TAJIKISTAN:  RASHT	38.881	70.559	40	0	0	0	0	0	0	0	1	31	1	0	0	0	0	0	0	0	0	0	1	31	1	0	0
10251	0	2017	5	28	11	4	59	1	5	0	0	5	0	0	0	0	TURKEY	0	"TURKEY: MANISA: SARUHANLI, GOLMARMARA"	38.765	27.775	140	0	0	0	0	0	0	0	2	0	0	35	1	0	0	0	0	0	0	0	2	0	0	35	1
5576	0	2000	9	3	8	36	30	10	5	5	4.9	4.9	0	0	0	7	USA	CA	CALIFORNIA:  NAPA	38.379	-122.413	150	0	0	0	0	41	1	50	4	0	0	0	0	0	0	0	0	41	1	50	4	0	0	0	0
9982	Tsu	1649	1	0	0	0	0	0	5	0	5	0	0	0	0	8	ITALY	0	ITALY:  MESSINA	38.183	15.55	130	0	0	0	0	0	0	0	1	0	0	0	0	0	0	0	0	0	0	0	1	0	0	0	0
4792	0	1978	3	11	19	20	49.1	33	5	0	5	5.6	0	0	5	0	ITALY	0	ITALY:  SICILY	38.1	16.03	130	2	1	0	0	0	2	0	2	0	0	0	0	0	0	0	0	0	0	0	0	0	0	0	0
7776	Tsu	1928	4	24	11	14	48	0	5	0	5	0	0	0	0	0	GREECE	0	GREECE:  AEGEAN SEA	38	23.5	130	0	0	0	0	0	0	0	0	0	0	0	0	0	0	0	0	0	0	0	0	0	0	0	0
8047	0	1957	6	10	20	2	2	0	5	0	5	0	0	0	0	6	CHINA	0	CHINA:  SHANXI PROVINCE	38	112.5	30	0	0	0	0	0	0	0	1	0	1	0	0	0	0	0	0	0	0	0	1	0	1	0	0
3599	0	1937	9	15	0	0	0	0	5	0	5	0	0	0	0	7	CHINA	0	CHINA:  SHANXI PROVINCE	37.8	112.5	30	0	2	0	0	0	0	0	2	0	3	0	0	0	2	0	0	0	0	0	2	0	3	0	0
8045	0	1956	8	19	0	44	33	0	5	0	5	0	0	0	0	7	CHINA	0	CHINA:  SHANXI PROVINCE	37.8	114	30	0	0	0	0	0	0	0	1	0	1	0	0	0	0	0	0	0	0	0	1	0	1	0	0
5171	0	1988	9	25	20	52	14.7	11	5	0	5	5.5	0	0	0	6	TAJIKISTAN	0	"TAJIKISTAN:  ROSHTKALA, KHOROG"	37.18	71.811	40	0	0	0	0	0	0	0	2	0	0	0	0	0	0	0	0	0	0	0	0	0	0	0	0
4983	0	1983	7	22	2	41	0.8	41	5	0	5	5.6	0	0	0	6	IRAN	0	"IRAN:  NW, ZANJIN"	36.948	49.18	140	3	1	0	0	41	1	5	2	75	2	0	0	3	1	0	0	41	1	5	2	75	2	0	0
5313	0	1991	11	28	17	19	55.5	16	5	0	5	5.6	0	0	0	0	IRAN	0	"IRAN:  RUDBAR, RASHT"	36.924	49.603	140	1	1	0	0	70	2	0	2	0	0	0	0	1	1	0	0	70	2	0	2	0	0	0	0
4005	0	1952	10	22	17	0	    	0	5	0	0	0	0	0	5	7	TURKEY	0	"TURKEY:  CEYHAN,MISIS"	36.5	35.5	140	20	1	0	0	0	0	0	3	0	0	0	0	0	0	0	0	0	0	0	0	0	0	0	0
7989	0	1888	3	11	0	0	0	0	5	0	5	0	0	0	0	6	CHINA	0	CHINA:  QINGHAI PROVINCE	36.5	102.2	30	0	1	0	0	0	1	0	1	0	2	0	2	0	1	0	0	0	1	0	1	0	2	0	0
3742	0	1943	4	16	0	0	    	0	5	0	0	0	0	0	5	0	ALGERIA	0	ALGERIA:  MANSOURAH	36.1	4.5	15	0	2	0	0	0	0	0	0	0	0	0	0	0	0	0	0	0	0	0	0	0	0	0	0
10204	0	2016	11	7	1	44	7	3	5	5	0	0	0	0	0	6	USA	OK	OKLAHOMA:  CUSHING	35.988	-96.805	150	0	0	0	0	0	1	20	3	0	0	50	1	0	0	0	0	0	1	20	3	0	0	50	1
3424	0	1930	10	2	0	0	    	0	5	0	0	0	0	0	5	0	IRAN	0	"IRAN:  AH,MOBARAKABAD,AB ALI,SARPURAK"	35.8	52.1	140	1	1	0	0	0	0	0	2	0	0	0	0	0	0	0	0	0	0	0	0	0	0	0	0
9889	0	2011	11	8	2	46	57	5	5	5	0	4.7	0	0	0	0	USA	OK	"OKLAHOMA:  SPARKS, PRAGUE"	35.531	-96.788	150	0	0	0	0	0	0	0	1	0	0	0	2	0	0	0	0	0	0	0	1	0	0	0	2
4399	0	1967	7	13	2	10	20	13	5	0	5	0	0	0	0	0	ALGERIA	0	ALGERIA:  NEAR SIG	35.5	-0.1	15	10	1	0	0	15	1	0	1	40	1	0	0	10	1	0	0	15	1	0	1	40	1	0	0
7951	0	1631	7	0	0	0	0	0	5	0	5	0	0	0	0	6	CHINA	0	CHINA:  NINGXIA	35.5	107.8	30	0	0	0	2	0	0	0	0	0	0	0	0	0	2	0	0	0	0	0	0	0	0	0	0
8121	0	2008	7	3	23	10	2	10	5	5	4.2	4.9	0	0	0	0	IRAN	0	IRAN:  NE:  KATKAN	35.5	58.8	140	0	0	0	0	0	0	0	1	0	2	0	2	0	0	0	0	0	0	0	1	0	2	0	0
3577	0	1936	7	3	21	2	    	0	5	0	0	0	0	0	5	0	SOUTH KOREA	0	SOUTH KOREA	35.2	127.6	30	9	1	0	0	0	0	0	3	0	0	0	0	0	0	0	0	0	0	0	0	0	0	0	0
7926	0	1505	10	16	0	0	0	0	5	0	5	0	0	0	0	6	CHINA	0	"CHINA:  SHANXI PROVINCE:  ANYI, GUEHENG"	35.2	110.9	30	0	2	0	0	0	0	0	0	0	0	0	0	0	2	0	0	0	0	0	0	0	0	0	0
5599	0	2001	6	1	14	0	43.6	62	5	5	4.6	5	0	0	0	0	AFGHANISTAN	0	AFGHANISTAN:  HINDU KUSH:  PARVAN	35.169	69.389	40	4	1	0	0	20	1	0	1	0	2	0	2	4	1	0	0	20	1	0	0	0	2	0	0
4279	0	1962	10	5	20	2	    	8	5	0	0	0	0	0	5	8	IRAN	0	"IRAN:  TORBAT HEYDARIYEH, AKHMEDABAD"	35.1	58.7	140	6	1	0	0	0	0	0	2	0	0	0	0	0	0	0	0	0	0	0	0	0	0	0	0
5205	0	1989	7	9	2	9	9.1	5	5	0	5	5.1	0	0	0	6	JAPAN	0	"JAPAN:  HONSHU:  ITO, AJIRO"	34.942	139.193	30	0	0	0	0	0	0	0	2	0	0	0	0	0	0	0	0	0	0	0	0	0	0	0	0
1903	0	1850	0	0	0	0	0	0	5	0	5	0	0	0	0	6	CHINA	0	CHINA:  GANSU PROVINCE:  WUSBAN	34.7	104.9	30	0	2	0	0	0	0	0	1	0	1	0	0	0	2	0	0	0	0	0	1	0	1	0	0
10290	0	2018	1	6	15	22	9	10	5	5	0	0	0	0	0	0	IRAN	0	IRAN:  KERMANSHAH	34.649	45.799	140	0	0	0	0	51	2	0	0	0	0	0	0	0	0	0	0	51	2	0	0	0	0	0	0
1503	0	1789	11	7	0	0	0	0	5	0	5	0	0	0	0	6	CHINA	0	CHINA:  SHAANXI PROVINCE:  TONGGUAN	34.6	110.3	30	0	2	0	0	0	0	0	1	0	1	0	0	0	2	0	0	0	0	0	1	0	1	0	0
7769	0	2008	2	15	10	36	19	10	5	0	0	5	5.3	0	0	0	LEBANON	0	LEBANON-SYRIA:  BAALBEC	33.327	35.305	140	0	0	0	0	10	1	0	1	0	0	0	1	0	0	0	0	10	1	0	1	0	0	0	1
5814	0	2004	11	22	4	1	30.4	36	5	5	4	5	0	0	0	0	IRAN	0	"IRAN:  KHORRAMABAD, POL-E DOKHTAR"	33.297	47.977	140	0	0	0	0	0	2	0	1	0	1	0	1	0	0	0	0	0	2	0	1	0	1	0	0
8994	0	2010	1	16	20	23	37	5	5	0	0	5	0	0	0	0	IRAN	0	IRAN:  KHUZESTAN:  ARRJAN	32.45	48.3	140	0	0	0	0	0	0	0	2	0	0	0	0	0	0	0	0	0	0	0	2	0	0	150	3
5747	0	2003	12	11	16	28	17.3	33	5	0	0	5	0	0	0	0	IRAN	0	IRAN:  WESTERN:  MASJED-E- SOLEYMAN	31.953	49.209	140	0	0	0	0	5	1	0	1	2	1	2	1	0	0	0	0	5	1	0	1	1	1	0	0
3482	0	1932	0	0	0	0	0	0	5	0	5	0	0	0	0	7	CHINA	0	CHINA:  SICHUAN PROVINCE	31.8	102.2	30	0	1	0	0	0	0	0	1	0	1	0	0	0	1	0	0	0	0	0	1	0	1	0	0
8050	0	1959	7	2	18	33	54	0	5	0	5	0	0	0	0	6	CHINA	0	CHINA:  HENAN PROVINCE	31.8	115.3	30	0	0	0	0	0	1	0	1	0	1	0	0	0	0	0	0	0	1	0	1	0	1	0	0
3345	0	1928	3	8	18	13	    	0	5	0	0	0	0	0	5	0	IRAN	0	IRAN:  NEHBANDAN	31.6	60	140	4	1	0	0	0	0	0	2	0	0	0	0	0	0	0	0	0	0	0	0	0	0	0	0
4701	0	1975	9	21	14	16	37.8	33	5	0	5	5.2	0	0	0	7	IRAN	0	"IRAN:  SARPIR,DORAHAN,DEH BAGH"	31.599	51.037	140	2	1	0	0	0	0	0	3	0	0	0	0	0	0	0	0	0	0	0	0	0	0	0	0
7961	0	1679	12	16	0	0	0	0	5	0	5	0	0	0	0	7	CHINA	0	CHINA:  JIANGSU PROVINCE	31.4	119.5	30	0	1	0	0	0	0	0	1	0	1	0	0	0	1	0	0	0	0	0	1	0	1	0	0
8017	0	1943	6	21	0	0	0	0	5	0	5	0	0	0	0	6	CHINA	0	CHINA:  SICHUAN PROVINCE	30.6	104.1	30	0	1	0	0	0	0	0	1	0	1	0	0	0	1	0	0	0	0	0	1	0	1	0	0
5121	0	1986	12	20	23	47	8.9	26	5	0	5	5.5	0	0	0	0	IRAN	0	"IRAN:  S MAMASANI, SHIRAZ, NORABAD"	29.985	51.623	140	0	0	0	0	0	0	0	2	80	2	0	0	0	0	0	0	0	0	0	2	80	2	0	0
5779	0	2004	5	8	4	39	25	67	5	0	0	5	0	0	0	0	IRAN	0	IRAN:  KAZERUN	29.881	51.474	140	0	0	0	0	0	0	0	1	4	1	4	1	0	0	0	0	0	0	0	1	4	1	6	1
3523	0	1933	9	20	0	0	0	0	5	0	5	0	0	0	0	6	CHINA	0	CHINA:  SICHUAN PROVINCE	29.5	102.5	30	200	3	0	0	0	0	0	1	30	1	0	0	200	3	0	0	0	0	0	1	30	1	0	0
8040	0	1954	10	24	11	41	6	0	5	0	5	0	0	0	0	7	CHINA	0	CHINA:  SICHUAN PROVINCE	29.4	104.8	30	0	0	0	0	0	0	0	1	0	1	0	1	0	0	0	0	0	0	0	1	0	1	0	0
8109	0	1905	11	8	3	27	0	0	5	0	5	0	0	0	0	6	CHINA	0	CHINA:  SICHUAN PROVINCE	29.3	104.8	30	13	1	0	0	0	1	0	1	3	1	3	1	13	1	0	0	0	1	0	1	3	1	0	0
7912	0	1361	0	0	0	0	0	0	5	0	5	0	0	0	0	6	CHINA	0	CHINA:  JIANGXI PROVINCE:  YEN HI CHAN	28.8	115.3	30	0	3	0	0	0	0	0	0	0	0	0	0	0	3	0	0	0	0	0	0	0	0	0	0
10227	0	2017	1	6	2	33	21	10	5	5	0	0	0	0	0	0	IRAN	0	IRAN:  KHONJ	28.2	53.107	140	4	1	0	0	4	1	0	1	0	0	0	0	4	1	0	0	4	1	0	1	0	0	0	0
7616	0	2007	8	25	4	24	21.9	10	5	0	0	5	4.5	0	0	0	IRAN	0	"IRAN:  HADJI ABAD, ORZUIYEH"	28.154	56.652	140	0	0	0	0	4	1	0	0	0	0	0	0	0	0	0	0	4	1	0	0	0	0	0	0
10112	0	2014	8	16	22	8	4	10	5	5	0	0	0	0	0	2	CHINA	0	CHINA:  YUNNAN PROVINCE:  YONGSHAN	28.125	103.546	30	0	0	0	0	6	1	0	1	0	0	337	3	0	0	0	0	6	1	0	1	0	0	337	3
4051	0	1954	8	20	15	30	    	0	5	0	0	0	0	0	5	0	IRAN	0	"IRAN:  TONBAK,KANGAN,SABAKHI,AKHTAR"	27.5	52	140	1	1	0	0	0	0	0	3	0	0	0	0	0	0	0	0	0	0	0	0	0	0	0	0
5310	0	1991	11	8	15	13	44.1	22	5	0	5	5.6	0	0	0	0	INDIA	0	"INDIA:  JODHPUR, JAISALMER"	26.323	70.607	60	0	0	0	0	0	0	0	1	0	0	0	0	0	0	0	0	0	0	0	1	0	0	0	0
706	0	1535	5	0	0	0	0	0	5	0	5	0	0	0	0	0	CHINA	0	CHINA:  FUJIAN:  CHANGTING	25.8	116.4	30	0	3	0	0	0	0	0	1	0	0	0	0	0	3	0	0	0	0	0	1	0	0	0	0
7934	0	1551	0	0	0	0	0	0	5	0	5	0	0	0	0	6	CHINA	0	CHINA:  GUIZHOU PROVINCE:  QINGLONG	25.8	105.2	30	0	3	0	0	0	0	0	0	0	0	0	0	0	3	0	0	0	0	0	0	0	0	0	0
7942	0	1579	12	21	0	0	0	0	5	0	5	0	0	0	0	6	CHINA	0	CHINA:  YUNNAN PROVINCE:  BAOSHAN	25.1	99.9	30	10	1	0	0	0	0	0	1	0	0	0	0	10	1	0	0	0	0	0	1	0	0	0	0
8171	0	2008	8	19	21	35	17.2	46	5	0	0	5	0	0	0	0	CHINA	0	CHINA:  YUNNAN PROVINCE	25.051	97.919	30	0	0	0	0	0	0	0	3	5	1	5	1	0	0	0	0	0	0	0	3	5	1	2420	4
8106	0	1885	12	22	0	0	0	0	5	0	5	0	0	0	0	6	CHINA	0	CHINA:   YUNNAN PROVINCE	25	104	30	4	1	0	0	0	2	0	1	0	1	0	0	4	1	0	0	0	2	0	1	0	1	0	0
9862	0	2011	8	9	11	50	22.2	40	5	0	0	5	0	0	0	0	CHINA	0	CHINA: YUNNAN PROVINCE: BAOSHAN	24.932	98.73	30	0	0	0	0	0	0	0	3	0	0	22823	4	0	0	0	0	3	1	0	3	0	0	22823	4
7981	0	1834	4	11	0	0	0	0	5	0	5	0	0	0	0	6	CHINA	0	CHINA:  YUNNAN PROVINCE	24.9	103	30	0	1	0	0	0	0	0	1	0	0	0	0	0	1	0	0	0	0	0	1	0	0	0	0
10353	0	2018	8	12	17	44	26	10	5	0	0	5	0	0	0	0	CHINA	0	CHINA:   YUNNAN PROVINCE:  YUXI	24.322	102.941	30	0	0	0	0	24	1	0	2	0	0	6000	4	0	0	0	0	24	1	0	2	0	0	6000	4
8035	0	1953	5	3	23	57	6	0	5	0	5	0	0	0	0	7	CHINA	0	CHINA:  YUNNAN PROVINCE	24.2	103.2	30	0	0	0	0	0	0	0	1	0	2	0	0	0	0	0	0	0	0	0	1	0	2	0	0
3311	0	1927	3	20	0	0	0	0	5	0	5	0	0	0	0	6	CHINA	0	CHINA:  YUNNAN PROVINCE:  XINPING	24.1	102	30	7	1	0	0	0	0	0	1	0	1	0	0	7	1	0	0	0	0	0	1	0	1	0	0
9968	0	2012	10	18	2	33	27.9	10	5	0	0	5	0	0	0	0	INDIA	0	"INDIA:  DEURALA, JAISINGHNAGAR, KOTMA, SARAI, UMARIA"	23.739	81.314	60	0	0	0	0	0	0	0	1	0	2	1	1	0	0	0	0	0	0	0	1	0	2	1	1
7749	0	2008	1	12	22	44	47.3	34	5	0	0	5	0	0	0	0	BANGLADESH	0	"INDIA-BANGLADESH:  RANGAMATI, BANGLADESH"	22.761	92.333	60	0	0	0	0	0	0	0	1	0	0	0	2	0	0	0	0	0	0	0	1	0	0	0	2
9875	0	2011	10	20	17	18	34.1	10	5	0	0	5	0	0	0	0	INDIA	0	INDIA:  GUJARAT	21.211	70.533	60	0	0	0	0	34	1	0	3	0	0	3000	4	0	0	0	0	34	1	0	3	0	0	3000	4
8186	0	2008	9	16	21	47	14.5	10	5	0	0	5	0	0	0	0	INDIA	0	INDIA:  MAHARASHTRA	17.438	73.915	60	1	1	0	0	20	1	0	3	0	0	0	0	1	1	0	0	20	1	0	3	0	0	1500	4
10264	0	2017	8	22	22	26	14	10	5	0	0	5	0	0	0	0	PHILIPPINES	0	PHILIPPINES: LEYTE: ORMOC	11.014	124.736	170	2	1	0	0	0	1	0	2	0	0	56	2	2	1	0	0	0	1	0	2	0	0	56	2
4379	0	1966	9	19	18	40	    	12	5	0	0	0	0	0	5	0	VENEZUELA	0	VENEZUELA	10.8	-69.5	160	0	0	0	0	0	0	0	3	0	0	0	0	0	0	0	0	0	0	0	0	0	0	0	0
4906	0	1980	11	26	17	35	39.1	40	5	0	5	3.8	0	0	0	0	COLOMBIA	0	VENEZUELA:  E	8.045	-72.441	160	0	0	0	0	36	1	0	2	30	1	0	0	0	0	0	0	36	1	0	2	30	1	0	0
9851	0	2011	11	7	9	43	15.9	46	5	5	0	5	0	0	0	0	PHILIPPINES	0	PHILIPPINES:  MINDANAO:  BUKIDNON PROVINCE	7.904	125.185	170	0	0	0	0	31	1	0	1	0	0	23	1	0	0	0	0	31	1	0	1	0	0	23	1
1545	0	1799	9	0	0	0	0	0	5	0	5	0	0	0	0	7	COLOMBIA	0	COLOMBIA:  CARTAGO	7.5	-73.5	160	0	0	0	0	0	0	0	3	0	0	0	0	0	0	0	0	0	0	0	3	0	0	0	0
4655	0	1974	4	18	1	19	22.6	24	5	0	0	5	0	0	5	0	COLOMBIA	0	"COLOMBIA:  NE, CEPITA, SAN ANDREAS"	6.89	-72.93	160	3	1	0	0	0	0	0	2	0	0	0	0	0	0	0	0	0	0	0	0	0	0	0	0
2789	Tsu	1906	11	20	21	0	0	0	5	0	0	0	0	5	0	8	GHANA	0	"GHANA:  HO, AKPAFU, PALIME, MISA, ACCRA; TOGO"	6.5	0.3	10	0	0	0	0	0	0	0	2	0	3	0	0	0	0	0	0	0	0	0	2	0	3	0	0
7233	0	2006	3	28	8	35	43.3	30	5	0	0	5	0	0	0	0	INDONESIA	0	INDONESIA:  N. SUMATRA: TAPAKTUAN	3.462	97.224	60	0	0	0	0	0	0	0	1	0	0	0	0	0	0	0	0	0	0	0	1	0	0	0	0
7482	0	2007	3	6	13	5	12.1	43	5	0	5	5	0	0	0	0	COLOMBIA	0	"COLOMBIA:  CAUCA, SOTARA, PURACE,"	2.082	-76.495	160	0	0	0	0	9	1	0	1	9	1	0	0	0	0	0	0	9	1	0	1	9	1	0	0
5090	0	1986	1	29	11	56	34.6	33	5	0	0	5	0	0	0	0	INDONESIA	0	"INDONESIA:  SUMATERA:  S, HAHAT, MUARAENIM"	-3.904	103.461	60	0	0	0	0	2	1	0	3	0	0	0	0	0	0	0	0	2	1	0	3	0	0	0	0
3733	0	1943	1	31	5	1	0	0	5	0	5	0	0	0	0	0	PERU	0	"PERU:  YANACOA, PAMPAMARCA"	-14.2	-71.5	160	75	2	0	0	200	3	0	1	0	0	0	0	75	2	0	0	200	3	0	0	0	0	0	0
5469	0	1997	7	21	8	45	49.1	5	5	0	0	5	0	0	0	0	SOUTH AFRICA	0	SOUTH AFRICA:  AVGOLD'S HARTEBEESTFONTEIN MINE	-26.857	26.619	10	15	1	0	0	46	1	0	0	0	0	0	0	15	1	0	0	46	1	0	0	0	0	0	0
5120	0	1986	12	19	5	47	29	33	5	0	0	5	0	0	0	3	CHILE	0	"CHILE:  CENTRAL, VALPARAISO"	-33.071	-72.084	160	0	0	0	0	0	2	0	1	16	1	0	0	0	0	0	0	0	2	0	1	16	1	0	0
9772	0	2010	9	6	11	24	1.5	9	5	0	0	5	5.3	0	0	5	NEW ZEALAND	0	NEW ZEALAND:  SOUTH ISLAND:  CHRISTCHURCH	-43.57	172.388	170	0	0	0	0	0	0	0	1	0	0	0	0	0	0	0	0	0	0	0	1	0	0	0	0
9774	0	2010	9	7	19	49	57.4	6	5	0	0	5	4.7	0	0	7	NEW ZEALAND	0	NEW ZEALAND:  SOUTH ISLAND:  CANTERBURY	-43.598	172.69	170	0	0	0	0	0	0	0	1	0	0	0	0	0	0	0	0	0	0	0	1	0	0	0	0
10114	Tsu	2008	8	26	8	7	8.5	10	5	0	0	5	0	0	0	0	ATLANTIC OCEAN	0	ATLANTIC OCEAN:  SOUTH	-52.533	26.417	70	0	0	0	0	0	0	0	0	0	0	0	0	0	0	0	0	0	0	0	0	0	0	0	0
5816	0	2004	11	24	22	59	40	17	5.1	5.1	4.6	5.3	5.5	0	0	0	ITALY	0	ITALY:  NORTHERN:  BRESCIA	45.626	10.559	130	0	0	0	0	9	1	0	2	0	3	0	0	0	0	0	0	9	1	0	2	0	3	0	0
474	0	1277	7	20	0	0	    	0	5.1	0	0	0	0	0	5.1	0	ITALY	0	ITALY:  VERONA	45.3	11	130	0	2	0	0	0	0	0	2	0	0	0	0	0	0	0	0	0	0	0	0	0	0	0	0
10339	0	2018	5	27	17	50	52	10	5.1	5.1	0	0	0	0	0	0	CHINA	0	CHINA:  JILIN PROVINCE:  NINGJIANG	45.279	124.557	30	0	0	0	0	0	0	0	3	0	0	10000	4	0	0	0	0	0	0	0	3	0	0	10000	4
9948	0	2012	5	20	13	18	2	5	5.1	5.1	0	5.1	0	0	0	0	ITALY	0	ITALY:  SANT'AGOSTINO	44.831	11.49	130	0	0	0	0	0	0	0	1	0	0	0	0	0	0	0	0	0	0	0	1	0	0	0	0
6506	Tsu	1905	10	4	22	29	0	0	5.1	0	5.1	0	0	0	0	7	RUSSIA	0	RUSSIA:  BLACK SEA	44.5	37.5	40	0	0	0	0	0	0	0	0	0	0	0	0	0	0	0	0	0	0	0	0	0	0	0	0
10125	0	2015	2	22	6	43	14	12	5.1	0	0	5.1	0	0	0	0	CHINA	0	CHINA:  XINJIANG PROVINCE:  SHAWAN	44.133	85.568	40	0	0	0	0	0	0	14.65	3	0	0	1728	4	0	0	0	0	0	0	14.65	3	0	0	1728	4
6555	Tsu	1970	12	4	1	59	25	7	5.1	0	5.1	0	0	0	0	0	RUSSIA	0	RUSSIA:  BLACK SEA	43.84	39.34	40	0	0	0	0	0	0	0	0	0	0	0	0	0	0	0	0	0	0	0	0	0	0	0	0
4989	0	1983	9	10	6	14	22.4	10	5.1	0	0	5.1	0	0	0	8	SERBIA	0	BALKANS NW:  SERBIA	43.246	20.859	130	0	0	0	0	0	0	0	2	0	0	0	0	0	0	0	0	0	0	0	0	0	0	0	0
5039	0	1984	5	13	12	45	55.8	30	5.1	0	5.1	5.1	0	0	0	7	BOSNIA-HERZEGOVINA	0	BOSNIA-HERZEGOVINA:  LJUBINJE; CROATIA:  DUBROVNIK	42.967	17.734	130	1	1	0	0	0	0	0	2	0	0	0	0	1	1	0	0	0	0	0	2	0	0	0	0
5051	0	1984	10	18	15	30	23	33	5.1	0	5.1	5.4	0	0	0	6	USA	WY	"WYOMING:  DOUGLAS, MEDICINE BOW"	42.375	-105.72	150	0	0	0	0	0	0	0	1	0	0	0	0	0	0	0	0	0	0	0	1	0	0	0	0
4781	0	1977	11	3	2	22	54.9	6	5.1	0	5.1	5.2	5.5	0	5.2	7	ROMANIA	0	ROMANIA:  VELINGRAD	42.11	23.97	110	0	0	0	0	0	0	0	2	0	0	0	0	0	0	0	0	0	0	0	0	0	0	0	0
10198	0	2016	9	11	13	10	7	13	5.1	5.1	0	0	0	0	0	6	MACEDONIA	0	BALKANS NW:  MACEDONIA	42.008	21.488	130	0	0	0	0	30	1	10	3	0	0	0	1	0	0	0	0	30	1	10	3	0	0	0	1
5518	0	1999	3	11	13	18	9.3	33	5.1	5.1	5.2	5.1	0	0	0	0	CHINA	0	CHINA:  NE: ZHANGBEI COUNTY	41.131	114.658	30	0	0	0	0	3	1	0	2	200	3	0	0	0	0	0	0	3	1	0	2	200	3	0	0
10394	0	2019	2	5	19	31	36	10	5.1	5.1	0	0	0	0	0	0	AZERBAIJAN	0	AZERBAIJAN:  SHEMAKHA (SEMACHA)	40.892	48.602	40	0	0	0	0	3	1	0	2	0	0	3000	4	0	0	0	0	3	1	0	2	0	0	3000	4
5552	0	2000	1	11	23	43	56.4	10	5.1	5.1	4.7	4.9	0	0	0	0	CHINA	0	CHINA:  LIAONING PROVINCE	40.498	122.994	30	0	0	0	0	30	1	0	3	3600	4	8800	4	0	0	0	0	30	1	0	3	3600	4	8800	4
9944	0	2012	11	26	5	33	48.8	10	5.1	5.1	0	5.6	0	0	0	0	CHINA	0	CHINA:  XINJIANG PROVINCE:  RUOQIANG	40.411	90.355	40	0	0	0	0	0	0	0	1	0	0	0	2	0	0	0	0	0	0	0	1	0	0	0	2
10000	0	2013	3	11	3	1	37.4	10	5.1	0	5.1	5.4	0	0	0	0	CHINA	0	CHINA:  XINJIAN PROVINCE:  S	40.119	77.466	40	0	0	0	0	0	0	0	2	864	3	0	0	0	0	0	0	0	0	0	2	864	3	0	0
5787	0	2004	7	1	22	30	9.3	5	5.1	5.1	4.8	5.4	0	0	0	0	TURKEY	0	TURKEY:  DOGUBEYAZIT	39.766	43.979	140	18	1	0	0	21	1	0	0	0	0	0	0	18	1	0	0	21	1	0	0	0	0	0	0
7455	0	2007	1	21	7	38	57	3	5.1	0	0	5.1	5	0	0	0	TURKEY	0	TURKEY:  E	39.592	42.863	140	0	0	0	0	2	1	0	1	0	0	0	0	0	0	0	0	2	1	0	1	0	0	0	0
4464	0	1968	9	24	4	19	    	14	5.1	0	0	0	0	0	5.1	0	TURKEY	0	TURKEY	39.2	40.1	140	2	1	0	0	0	0	0	3	0	0	0	0	0	0	0	0	0	0	0	0	0	0	0	0
4488	0	1969	4	30	20	20	    	9	5.1	0	0	0	0	0	5.1	0	TURKEY	0	"TURKEY:  DEMIRCI, WESTERN ANATOLIA, ISTANBUL"	39.2	28.6	140	0	0	0	0	0	0	0	2	0	0	0	0	0	0	0	0	0	0	0	0	0	0	0	0
9990	Tsu	1916	7	3	23	21	41	0	5.1	0	5.1	0	0	0	0	7	ITALY	0	ITALY:  STROMBOLI ISLAND	38.817	15.233	130	0	0	0	0	0	0	0	1	0	0	0	1	0	0	0	0	0	0	0	1	0	0	0	1
4649	0	1973	11	23	13	36	19.3	5	5.1	0	5.1	5	0	0	5.3	8	AZORES (PORTUGAL)	0	"AZORES:  PICO, FAIAL, TERCEIRA"	38.46	-28.31	130	1	1	0	0	0	0	0	2	0	0	0	0	0	0	0	0	0	0	0	0	0	0	0	0
8693	0	2010	1	2	2	15	12	47	5.1	0	5.1	5.4	0	0	0	0	TAJIKISTAN	0	TAJIKISTAN	38.245	71.467	40	0	0	0	0	0	0	1.5	2	98	2	1000	3	0	0	0	0	0	0	1.5	2	98	2	1000	3
945	0	1640	2	27	0	0	    	15	5.1	0	0	0	0	0	5.1	7	IRAN	0	IRAN:  TABRIZ	38.2	46.3	140	0	0	0	0	0	0	0	2	0	0	0	0	0	0	0	0	0	0	0	0	0	0	0	0
4887	0	1980	7	27	18	52	21.8	8	5.1	0	5.1	4.7	0	0	0	7	USA	KY	KENTUCKY:  MAYSVILLE	38.174	-83.907	150	0	0	0	0	2	1	1	2	0	0	0	0	0	0	0	0	2	1	1	2	0	0	0	0
8852	0	1968	1	25	9	56	48.7	33	5.1	0	5.1	0	0	0	0	0	ITALY	0	ITALY:  SICILY	37.8	13.2	130	8	1	0	0	55	2	0	1	0	0	0	0	8	1	0	0	55	2	0	1	0	0	0	0
9821	0	2011	5	11	16	47	25.7	1	5.1	5.1	0	5.3	0	0	0	0	SPAIN	0	SPAIN:  LORCA	37.699	-1.672	130	10	1	0	0	0	3	0	1	0	1	0	1	10	1	0	0	0	3	0	1	0	1	0	0
4340	0	1965	2	10	16	9	    	52	5.1	0	0	0	0	0	5.1	0	IRAN	0	IRAN:  NW	37.6	47.1	140	20	1	0	0	0	0	0	3	0	0	0	0	0	0	0	0	0	0	0	0	0	0	0	0
10383	0	2018	12	26	2	19	16	10	5.1	0	0	5.1	0	0	0	0	ITALY	0	ITALY:  SICILY:  CATANIA	37.555	15.166	130	0	0	0	0	28	1	114	4	15	1	0	1	0	0	0	0	28	1	114	4	15	1	0	1
5579	0	2000	10	30	22	39	6.5	33	5.1	5.1	4.5	5.2	0	0	0	0	AFGHANISTAN	0	AFGHANISTAN-TAJIKISTAN:  RAKHOR	37.542	69.582	40	0	0	0	0	0	0	0	2	0	0	0	0	0	0	0	0	0	0	0	2	0	0	800	3
5280	0	1991	4	18	9	18	30.4	33	5.1	0	5.1	5.4	0	0	0	7	AFGHANISTAN	0	AFGHANISTAN:  BADAKHSTAN PROVINCE	37.457	68.273	40	0	2	0	0	0	3	0	3	0	0	1000	3	0	2	0	0	0	3	0	3	0	0	1000	3
6469	Tsu	1987	3	24	12	49	47	23	5.1	0	5.1	5.7	0	0	0	0	JAPAN	0	JAPAN:  HONSHU ISLAND	37.447	137.865	30	0	0	0	0	0	0	0	0	0	0	0	0	0	0	0	0	0	0	0	0	0	0	0	0
5255	0	1990	7	18	11	29	24.9	17	5.1	0	5.1	5.2	0	0	0	0	TURKEY	0	"TURKEY:  CAMELI, DENIZLI"	36.99	29.595	140	0	0	0	0	0	0	0	2	0	0	393	3	0	0	0	0	0	0	0	2	0	0	393	3
5301	0	1991	7	24	9	45	41.8	26	5.1	0	5.1	5.4	0	0	0	8	IRAQ	0	"IRAQ:  ARBIL,  DIBS"	36.52	44.066	140	20	1	0	0	0	3	0	2	100	2	100	2	20	1	0	0	0	3	0	2	100	2	0	0
3196	0	1922	8	25	11	47	49	0	5.1	0	5.1	0	0	0	0	10	ALGERIA	0	"ALGERIA: BORDJ ABOU EL HASEN, DAHRA"	36.3	1.3	15	0	0	0	0	0	0	0	0	0	0	0	0	0	0	0	0	0	0	0	0	0	0	0	0
5733	0	2003	11	13	2	35	10.3	10	5.1	5.1	5.1	5.1	0	0	0	0	CHINA	0	"CHINA:  GANSU PROVINCE:  JONE, LINTAN, MINXIAN"	34.712	103.834	30	1	1	0	0	30	1	0	1	10	1	0	0	1	1	0	0	30	1	0	1	10	1	0	0
5295	0	1991	6	28	14	43	54.5	11	5.1	0	5.1	5.8	0	0	0	7	USA	CA	"CALIFORNIA:  ARCADIA, GLENDALE, LOS ANGELES"	34.262	-118.002	150	2	1	0	0	104	3	33.5	4	0	0	0	0	2	1	0	0	104	3	33.5	4	0	0	0	0
10082	0	2014	3	29	4	10	12	4	5.1	5.1	0	0	0	0	0	6	USA	CA	"CALIFORNIA:  LA HABRA, BREA, FULLERTON"	33.863	-117.835	150	0	0	0	0	0	1	10.8	3	0	0	20	1	0	0	0	0	0	1	10.8	3	0	0	20	1
10145	0	2015	7	24	20	59	12	17	5.1	5.1	0	0	0	0	0	5	PAKISTAN	0	PAKISTAN:  ABBOTTABAD	33.856	73.193	60	3	1	0	0	1	1	0	1	3	1	0	0	3	1	0	0	1	1	0	1	3	1	0	0
4294	0	1963	6	30	7	41	    	38	5.1	0	0	0	0	0	5.1	0	IRAN	0	IRAN:  W	33.2	49.2	140	0	0	0	0	0	0	0	2	0	0	0	0	0	0	0	0	0	0	0	0	0	0	0	0
7766	0	2008	2	9	7	12	5.8	3	5.1	5.1	0	5.1	5.5	0	0	0	MEXICO	0	MEXICO:  BAJA CALIFORNIA	32.456	-115.315	150	0	0	0	0	0	0	0	1	0	0	0	0	0	0	0	0	0	0	0	1	0	0	0	0
5347	0	1993	1	27	10	27	5.6	33	5.1	0	0	5.1	0	0	0	0	IRAN	0	IRAN:  NEHBANDAN	32.104	60.088	140	0	0	0	0	0	0	0	1	0	0	0	0	0	0	0	0	0	0	0	0	0	0	0	0
9847	0	2011	4	10	9	2	47.3	43	5.1	0	0	5.1	0	0	0	0	CHINA	0	CHINA:  SICHUAN PROVINCE:  LUHUO	31.373	100.757	30	0	0	0	0	0	0	0	1	0	0	0	1	0	0	0	0	0	0	0	1	0	1	0	0
5352	0	1993	3	26	22	52	46.9	30	5.1	5.1	4.8	5.1	0	0	0	0	IRAN	0	IRAN:  BOVIR AHMADI VA KOHKILUYEH	30.692	50.886	140	0	0	0	0	0	0	0	2	0	0	0	0	0	0	0	0	0	0	0	0	0	0	0	0
5195	0	1989	5	3	9	13	24.2	33	5.1	0	0	5.1	0	0	0	0	IRAN	0	"IRAN:  SW, SHIRAZ, MAMASANI"	29.964	51.655	140	0	0	0	0	0	0	0	3	0	0	0	0	0	0	0	0	0	0	0	0	0	0	0	0
4560	0	1971	4	6	6	49	52.9	10	5.1	0	5.1	5.2	0	0	0	0	IRAN	0	"IRAN:  DASHT-E-ARJAN,KHAN-E-ZENYAN,SHIRAZ"	29.8	51.9	140	0	0	0	0	0	0	0	3	0	0	0	0	0	0	0	0	0	0	0	0	0	0	0	0
10285	0	2017	11	23	9	43	34	10	5.1	0	0	5.1	0	0	0	0	CHINA	0	CHINA: CHONGQING: WULONG	29.362	108.104	30	0	0	0	0	8	1	1.5	2	1	1	30	1	0	0	0	0	8	1	1.5	2	1	1	30	1
6768	0	2005	8	9	5	9	20.8	10	5.1	0	0	5.1	5	0	0	0	IRAN	0	IRAN:  FIRUZABAD	28.85	52.56	140	0	0	0	0	0	0	0	1	0	0	0	0	0	0	0	0	0	0	0	1	0	0	0	0
5367	0	1993	10	20	16	15	59.6	37	5.1	0	0	5.1	0	0	0	0	NEPAL	0	NEPAL: NW; INDIA:  UTTAR PRADESH	28.723	82.28	60	0	0	0	0	0	0	0	1	0	0	0	0	0	0	0	0	0	0	0	0	0	0	0	0
8078	0	1966	1	31	2	35	3	0	5.1	0	5.1	0	0	0	0	7	CHINA	0	CHINA:  YUNNAN PROVINCE	27.9	99.7	30	0	0	0	0	0	0	0	1	0	1	0	0	0	0	0	0	0	0	0	1	0	1	0	0
8430	0	2009	11	3	23	26	52	14	5.1	0	0	5.1	4.9	0	0	0	IRAN	0	IRAN:  BANDAR ABBAS	27.334	56.202	140	0	0	0	0	269	3	0	1	0	0	0	0	0	0	0	0	269	3	0	1	0	0	0	1
7246	0	2006	6	3	7	15	35.6	5	5.1	0	0	0	5.1	0	0	0	IRAN	0	IRAN:  SOUTHERN:  QESHM	26.759	55.843	140	2	1	0	0	4	1	0	1	0	2	0	2	2	1	0	0	4	1	0	1	0	2	0	0
5847	0	2005	2	15	11	15	11.7	35	5.1	0	0	5.1	0	0	0	0	INDIA	0	INDIA:  KHASPUR	24.55	92.524	60	0	0	0	0	0	0	0	1	0	0	0	0	0	0	0	0	0	0	0	1	0	0	0	0
7701	0	2007	11	7	7	10	21.9	29	5.1	0	5.1	5.1	0	0	0	0	BANGLADESH	0	"BANGLADESH:  CHITTAGONG, BANDARBAN, RANGAMATI"	22.15	92.388	60	0	0	0	0	10	1	0	1	0	0	0	0	0	0	0	0	10	1	0	1	0	0	0	0
5201	0	1989	6	12	0	4	9.7	6	5.1	0	5.1	6.1	0	0	0	0	BANGLADESH	0	BANGLADESH:  BANARIPARA	21.861	89.763	60	1	1	0	0	0	0	0	2	0	0	0	0	0	0	0	0	0	0	0	0	0	0	0	0
7699	0	2007	11	6	9	38	5.7	10	5.1	5.1	0	5	0	0	0	0	INDIA	0	INDIA:  GUJARAT	21.181	70.724	60	1	1	0	0	5	1	0	1	0	2	0	2	1	1	0	0	5	1	0	1	0	2	0	0
10239	0	2017	3	13	14	19	6	10	5.1	0	0	5.1	0	0	0	0	MYANMAR (BURMA)	0	MYANMAR (BURMA):  THARRAWADDY	17.415	95.999	60	2	1	0	0	36	1	0	1	0	1	0	1	2	1	0	0	36	1	0	1	0	1	0	1
8794	0	2009	12	12	11	51	25.7	10	5.1	0	0	5.1	0	0	0	0	INDIA	0	INDIA:  MAHARASHTRA:  SATARA	17.109	73.767	60	0	0	0	0	0	0	0	1	0	0	0	0	0	0	0	0	0	0	0	1	0	0	0	2
4714	0	1976	3	13	16	30	41.5	5	5.1	0	5.1	5.4	0	0	0	0	GUATEMALA	0	GUATEMALA	14.767	-91.061	100	4	1	0	0	50	1	0	2	0	0	0	0	4	1	0	0	50	1	0	2	0	0	0	0
4950	0	1982	9	29	5	50	32.2	12	5.1	0	5.1	5.1	0	0	0	4	HONDURAS	0	HONDURAS-GUATEMALA-EL SALVADOR	14.487	-89.121	100	3	1	0	0	2	1	0	2	0	3	554	3	3	1	0	0	2	1	0	2	0	3	554	3
9863	0	2011	11	24	21	13	15.6	43	5.1	0	0	5.1	0	0	0	0	EL SALVADOR	0	EL SALVADOR-GUATEMALA	13.297	-87.898	100	0	0	0	0	0	0	0	1	0	0	80	2	0	0	0	0	0	0	0	1	0	0	80	2
7700	0	2007	11	7	4	12	38.6	72	5.1	0	0	5.1	0	0	0	0	PHILIPPINES	0	PHILIPPINES:  BOHOL ISLAND:  MABINI	9.721	124.647	170	1	1	0	0	0	0	0	0	0	0	0	0	1	1	0	0	0	0	0	0	0	0	0	0
10345	0	2015	11	22	20	38	5	5	5.1	5.1	0	0	0	0	0	4	VENEZUELA	0	VENEZUELA:  MERIDA	8.48	-71.42	160	1	1	0	0	3	1	0	1	0	0	6	1	1	1	0	0	3	1	0	1	0	0	6	1
9827	0	2010	12	16	12	14	24.5	10	5.1	0	0	5.1	0	0	0	0	ETHIOPIA	0	"ETHIOPIA:  JIMA,  HOSA'INA, SHENK'OLA, WENJELA"	7.521	37.839	10	0	0	0	0	0	3	0	2	0	0	0	3	0	0	0	0	0	3	0	2	0	0	0	3
10113	0	2014	8	12	19	58	13	12	5.1	5.1	0	0	0	0	0	5	ECUADOR	0	ECUADOR:  QUITO	-0.018	-78.322	160	2	1	0	0	8	1	0	1	0	0	89	2	2	1	0	0	8	1	0	1	0	0	89	2
5762	0	2004	2	16	14	44	39.9	56	5.1	5.1	4.5	5.2	0	0	0	0	INDONESIA	0	INDONESIA:  SUMATRA:  PADANGPANJANG	-0.466	100.655	60	5	1	0	0	7	1	0	1	0	0	0	0	5	1	0	0	7	1	0	0	0	0	100	2
8992	0	2010	1	10	0	25	4.2	65	5.1	0	0	5.1	0	0	0	0	INDONESIA	0	INDONESIA:  JAVA:  GARUT	-7.907	107.879	60	1	1	0	0	2	1	0	0	0	0	0	0	1	1	0	0	2	1	0	0	0	0	0	0
5145	0	1987	10	2	22	27	55.8	20	5.1	0	5.1	5.4	0	0	0	4	PERU	0	"PERU:  SANTAOG DE CHUCO, TRUJILLO, CHIMBOTE"	-8.143	-77.954	160	3	1	0	0	0	0	0	2	0	3	0	0	3	1	0	0	0	0	0	3	0	3	0	0
10006	0	2013	6	22	5	42	39.8	47	5.1	5.1	0	5.1	0	0	0	0	INDONESIA	0	INDONESIA:  LOMBOK ISLAND	-8.305	116.058	60	0	0	0	0	50	1	0	3	5370	3	1700	4	0	0	0	0	50	1	0	3	5370	4	1700	4
10118	0	2014	9	28	2	35	19	10	5.1	5.1	0	0	0	0	0	7	PERU	0	PERU:  PARURO PROVINCE	-13.843	-71.695	160	8	1	0	0	6	1	0	1	106	3	0	3	8	1	0	0	6	1	0	1	106	3	0	3
4625	0	1973	2	21	14	42	23.4	38	5.1	0	0	5.1	0	0	5.7	6	NEW ZEALAND	0	NEW ZEALAND:  HAWKES BAY	-39.58	176.57	170	0	0	0	0	0	0	0	2	0	0	0	0	0	0	0	0	0	0	0	0	0	0	0	0
9773	0	2010	9	6	22	48	33.2	21	5.1	0	0	5.1	5.2	0	0	6	NEW ZEALAND	0	NEW ZEALAND:  NORTH ISLAND:  PORANGAHAU	-40.433	176.818	170	0	0	0	0	0	0	0	1	0	0	0	0	0	0	0	0	0	0	0	1	0	0	0	0
6328	Tsu	1970	9	28	19	1	0	0	5.1	0	5.1	0	0	0	0	0	NEW ZEALAND	0	NEW ZEALAND	-44.64	173.62	170	0	0	0	0	0	0	0	0	0	0	0	0	0	0	0	0	0	0	0	0	0	0	0	0
5319	0	1992	4	13	1	20	0.8	21	5.2	0	5.2	5.5	5.9	0	0	8	NETHERLANDS	0	"THE NETHERLANDS: ROERMOND; GERMANY: BONN, HEINSBERG"	51.153	5.798	120	1	1	0	0	45	1	100	4	0	0	0	0	1	1	0	0	45	1	100	4	0	0	0	0
5789	0	2004	7	12	13	4	7.1	8	5.2	5.2	4.9	5	5.7	0	0	0	SLOVENIA	0	"SLOVENIA: BOVEC, KOBARID"	46.296	13.641	130	1	1	0	0	5	1	0	1	0	1	0	1	1	1	0	0	5	1	0	1	0	1	0	1
4876	Tsu	1980	5	18	15	32	11.4	4	5.2	0	5.2	4.7	5	0	0	5	USA	WA	WASHINGTON:  MT ST HELENS	46.214	-122.194	150	0	0	0	0	0	0	0	0	0	0	0	0	61	2	0	0	0	0	2000	4	0	0	0	0
9373	0	2010	6	23	17	41	41	22	5.2	5.2	0	5.5	0	0	0	6	CANADA	0	"CANADA:  QUEBEC:  VAL-DES-BOIS, GRACEFIELD"	45.88	-75.48	150	0	0	0	0	0	0	0	1	0	0	0	0	0	0	0	0	0	0	0	1	0	0	0	0
4575	0	1971	7	15	1	33	22.3	7	5.2	0	0	5.2	0	0	0	0	ITALY	0	ITALY:  PARMA	44.8	10.3	130	2	1	0	0	0	0	0	1	0	0	0	0	2	1	0	0	0	0	0	1	0	0	0	0
5631	0	2002	4	20	10	50	47.5	11	5.2	5.2	4.2	5.2	0	0	0	7	USA	NY	"NEW YORK:  CLINTON, ESSEX, AU SABLE FORKS"	44.513	-73.699	150	0	0	0	0	0	0	0	1	0	0	0	0	0	0	0	0	0	0	0	1	0	0	0	0
2237	0	1875	7	25	4	28	0	9	5.2	0	5.2	0	0	0	0	9	UKRAINE	0	UKRAINE:  CRIMEA:  SEVASTOPOL	44.5	33.4	110	0	0	0	0	0	3	0	2	0	0	0	3	0	0	0	0	0	3	0	2	0	0	0	3
8087	0	1966	10	2	2	24	57	0	5.2	0	5.2	0	0	0	0	7	CHINA	0	CHINA:  JILIN PROVINCE	43.83	125.12	30	0	0	0	0	0	0	0	3	0	0	0	0	0	0	0	0	0	0	0	3	0	0	0	0
9979	Tsu	1646	4	5	0	0	0	0	5.2	0	5.2	0	0	0	0	7	ITALY	0	ITALY:  LIGURIAN COAST	43.55	10.317	130	0	0	0	0	0	0	0	2	0	0	0	3	0	0	0	0	0	0	0	2	0	0	0	3
5490	0	1998	4	3	7	26	36.6	10	5.2	5.2	4.8	5.1	0	0	0	0	ITALY	0	"ITALY:  CENTRAL:  GUALDO, TADINO-NOCERA UMBRA"	43.164	12.701	130	0	0	0	0	0	0	0	1	300	3	0	0	0	0	0	0	5	1	0	1	300	3	0	0
4675	0	1975	1	9	23	9	46.6	31	5.2	0	0	5.2	0	0	5.2	0	RUSSIA	0	RUSSIA:  DAGESTAN	42.89	46.99	40	0	0	0	0	0	0	0	2	0	0	0	0	0	0	0	0	0	0	0	0	0	0	0	0
6759	0	2005	7	10	13	10	12.1	4	5.2	5.2	4.9	5.4	5.5	0	0	0	ALBANIA	0	ALBANIA:  TROPOJE	42.389	19.812	130	0	0	0	0	0	0	0	1	0	1	0	0	0	0	0	0	0	0	0	1	0	1	0	0
5038	0	1984	5	11	10	41	49.9	14	5.2	0	5.2	5.2	0	0	0	8	ITALY	0	ITALY:  S CENTRAL:  ABRUZZO	41.831	13.961	130	3	1	0	0	63	2	0	2	0	0	0	0	3	1	0	0	63	2	0	2	0	0	0	0
5530	0	1999	8	31	8	10	49.5	10	5.2	5.2	4.9	5.2	0	0	0	0	TURKEY	0	TURKEY:  IZMIT	40.711	29.949	140	1	1	0	0	166	3	0	1	0	0	0	0	1	1	0	0	166	3	0	1	0	0	0	0
4883	0	1980	7	11	11	47	26.5	33	5.2	0	0	5.2	0	0	0	6	TAJIKISTAN	0	"TAJIKISTAN:  SHURAB, NEFTEABAD"	40.113	70.596	40	0	0	0	0	0	0	0	1	0	0	0	0	0	0	0	0	0	0	0	1	0	0	0	0
218	0	851	0	0	0	0	0	10	5.2	0	5.2	0	0	0	0	8	ARMENIA	0	ARMENIA:  DVIN	40	44.6	40	12000	4	0	0	0	0	0	0	0	0	0	0	12000	4	0	0	0	0	0	0	0	0	0	0
234	0	858	1	0	0	0	0	10	5.2	0	0	0	0	0	5.2	0	TURKEY	0	TURKEY; ARMENIA:  DVINA	40	44.6	140	12000	4	0	0	0	0	0	3	0	0	0	0	0	0	0	0	0	0	0	0	0	0	0	0
5699	0	2003	6	9	7	6	39.3	18	5.2	5.2	4.9	4.9	0	0	0	0	GREECE	0	"GREECE:  GONNOI, LARISA"	39.893	22.309	130	0	0	0	0	0	0	0	1	0	0	50	1	0	0	0	0	0	0	0	1	0	0	50	1
6514	Tsu	1840	11	11	0	0	0	0	5.2	0	0	0	5.2	0	0	0	USA	PA	PENNSYLVANIA:  PHILADELPHIA	39.8	-75.2	150	0	0	0	0	0	0	0	0	0	0	0	0	0	0	0	0	0	0	0	0	0	0	0	0
4853	0	1979	11	6	5	26	17.7	40	5.2	0	5.2	5.4	0	0	0	8	GREECE	0	GREECE-ALBANIA	39.536	20.398	130	1	1	0	0	3	1	0	3	0	0	0	0	1	1	0	0	3	1	0	3	0	0	0	0
7597	0	2007	7	21	22	44	13.5	10	5.2	5.2	5	5.6	0	0	0	0	TAJIKISTAN	0	"TAJIKISTAN:  RASHT, ASHT"	38.936	70.485	40	12	1	0	0	0	0	0	0	0	0	0	0	12	1	0	0	0	0	0	0	0	0	0	0
4964	0	1983	2	26	20	7	49.9	49	5.2	0	5.2	5.3	0	0	0	7	TAJIKISTAN	0	"TAJIKISTAN:  GARM, KHAZORA"	38.841	70.727	40	0	0	0	0	0	0	0	3	0	0	0	0	0	0	0	0	0	0	0	3	0	0	0	0
4654	0	1974	2	1	0	1	2.4	29	5.2	0	0	5.2	0	0	0	0	TURKEY	0	TURKEY:  IZMIR	38.6	27	140	2	1	0	0	20	1	0	0	0	0	0	0	2	1	0	0	20	1	0	0	0	0	0	0
10305	0	2013	11	10	5	16	36	23	5.2	0	0	5.2	0	0	0	4	TAJIKISTAN	0	TAJIKISTAN:  VAHDAT	38.41	68.89	40	0	0	0	0	0	0	0	2	104	3	256	3	0	0	0	0	0	0	0	2	104	3	256	3
8217	Tsu	1928	4	25	0	31	18	0	5.2	0	5.2	0	0	0	0	6	GREECE	0	GREECE	38	23	130	0	0	0	0	0	0	0	0	0	0	0	0	0	0	0	0	0	0	0	0	0	0	0	0
10328	0	2018	4	24	0	34	31	10	5.2	5.2	0	0	0	0	0	0	TURKEY	0	TURKEY:  ADIYAMAN	37.596	38.514	140	0	0	0	0	39	1	0	1	0	0	0	1	0	0	0	0	39	1	0	1	0	0	0	1
10004	Tsu	1727	7	4	0	0	0	0	5.2	0	5.2	0	0	0	0	5	ITALY	0	ITALY:  SCIACCA	37.5	13	130	0	0	0	0	0	0	0	0	0	0	0	0	0	0	0	0	0	0	0	0	0	0	0	0
8081	0	1966	3	6	0	12	19	0	5.2	0	5.2	0	0	0	0	7	CHINA	0	CHINA:  HEBEI PROVINCE	37.47	115.03	30	0	0	0	0	0	0	0	1	11	1	0	0	0	0	0	0	0	0	0	1	11	1	0	0
5766	0	2004	3	1	0	35	58	9	5.2	5.2	4.8	5.4	5.1	0	0	0	GREECE	0	GREECE:  SOUTHERN:  KALAMATA	37.136	22.116	130	0	0	0	0	0	0	0	1	0	0	0	1	0	0	0	0	0	0	0	1	0	0	0	1
3591	0	1937	2	10	18	16	0	0	5.2	0	5.2	5.4	0	0	0	8	ALGERIA	0	"ALGERIA:  GUELMA, LAPAINE"	36.4	7.5	15	0	1	0	0	0	0	0	1	0	0	0	0	0	1	0	0	0	0	0	1	0	0	0	0
5827	0	2004	11	4	6	22	39.4	74	5.2	5.2	0	5.4	0	0	0	0	GREECE	0	GREECE:  CRETE:  ANTIKYTHIRA	35.945	23.115	130	0	0	0	0	0	0	0	1	0	0	0	0	0	0	0	0	0	0	0	1	0	0	0	0
9132	0	2010	5	14	12	29	22.3	2	5.2	0	0	5.2	5.2	0	0	0	ALGERIA	0	ALGERIA:  NORTHERN:  BENI YELLMAN	35.9	4.12	15	2	1	0	0	43	1	0	0	0	0	0	0	2	1	0	0	43	1	0	0	0	0	0	0
5646	0	2002	9	2	1	0	3.2	10	5.2	5.2	0	5.1	0	0	0	0	IRAN	0	"IRAN: KAK, RAZAN, SIZAN"	35.701	48.838	140	0	0	0	0	0	0	0	1	0	0	0	0	0	0	0	0	0	0	0	1	0	0	0	1
5704	0	2003	7	3	14	59	32.2	41	5.2	5.2	4.9	5.2	0	0	0	0	IRAN	0	"IRAN:  NORTHEASTERN: YAKHAK, BASHIRABAD, BUTEHGAZ"	35.476	60.784	140	0	0	0	0	0	0	0	1	0	0	0	0	0	0	0	0	0	0	0	1	0	0	90	2
5001	0	1983	10	30	16	51	57	27	5.2	0	5.2	5.2	0	0	0	6	JAPAN	0	"JAPAN:  TOTTORI, YONANGO"	35.464	133.899	30	0	0	0	0	0	0	0	2	0	0	0	0	0	0	0	0	0	0	0	0	0	0	0	0
5729	0	2003	10	15	7	30	35.9	78	5.2	5.2	0	5	0	0	0	0	JAPAN	0	JAPAN:  NEAR S COAST HONSHU:  ATSUGI	35.457	139.871	30	0	0	0	0	0	0	0	1	0	0	0	0	0	0	0	0	0	0	0	1	0	0	0	0
5801	0	2004	9	7	12	15	49.7	10	5.2	0	0	5.2	0	0	0	0	CHINA	0	CHINA:  GANSU PROVINCE	34.682	103.781	30	0	0	0	0	19	1	0	3	600	3	0	0	0	0	0	0	19	1	0	3	600	3	0	0
5668	0	2002	12	24	17	3	2.9	33	5.2	5.2	4.4	5.1	0	0	0	0	IRAN	0	IRAN:  KERMANSHAH	34.594	47.454	140	0	0	0	0	15	1	0	3	3000	4	3000	4	0	0	0	0	15	1	0	3	3000	4	0	0
4908	0	1980	12	22	12	51	21	41	5.2	0	5.2	5.2	0	0	0	0	IRAN	0	"IRAN:  N CENTRAL, TEHRAN"	34.503	50.59	140	3	1	0	0	139	3	1	2	0	0	0	0	3	1	0	0	139	3	1	2	0	0	0	0
5680	0	2003	2	22	12	19	10.5	1	5.2	5.2	4.8	4.9	0	0	0	6	USA	CA	CALIFORNIA:  BIG BEAR CITY	34.31	-116.848	150	0	0	0	0	0	0	0	1	0	0	0	0	0	0	0	0	0	0	0	1	0	0	0	0
6619	Tsu	1930	8	31	0	40	38	15	5.2	0	5.2	0	0	0	0	7	USA	CA	CALIFORNIA:  SOUTHERN	34.03	-118.643	150	0	0	0	0	0	0	0	1	0	0	0	0	1	1	0	0	0	0	0	1	0	0	0	0
9777	0	2010	10	10	21	44	25.9	33	5.2	0	0	5.2	0	0	0	0	PAKISTAN	0	"PAKISTAN:  KHANPUR, HARIPUR"	33.869	72.887	60	1	1	0	0	15	1	0	2	0	0	100	1	1	1	0	0	15	1	0	1	0	0	100	2
5792	0	2004	7	18	8	31	45.8	10	5.2	5.2	4.8	5.1	0	0	0	0	AFGHANISTAN	0	AFGHANISTAN: PAKTIA PROVINCE	33.426	69.524	40	2	1	0	0	40	1	0	3	0	3	0	3	2	1	0	0	40	1	0	3	0	3	0	0
10295	0	2013	8	2	21	37	7	42	5.2	0	0	5.2	0	0	0	3	INDIA	0	INDIA:  KASHMIR:  KISHTWAR	33.297	75.95	60	0	0	0	0	2	1	0	2	0	0	0	3	0	0	0	0	2	1	0	2	0	0	0	3
10178	0	2016	5	11	1	15	22	8	5.2	5.2	0	0	0	0	0	0	CHINA	0	CHINA:  TIBET (XIZANG PROVINCE)	32.022	95.027	40	0	0	0	0	60	2	0	1	0	1	0	0	0	0	0	0	60	2	0	1	0	1	0	0
9903	0	2012	2	27	18	48	55.3	10	5.2	0	0	5.2	5.2	0	0	0	IRAN	0	IRAN:  RAVAR	31.428	56.778	140	0	0	0	0	6	1	0	1	0	0	0	2	0	0	0	0	6	1	0	1	0	0	0	2
9766	0	2010	6	22	23	14	10.8	16	5.2	0	0	5.2	5.2	0	0	0	INDIA	0	INDIA:  TAULI	29.872	80.428	60	0	0	0	0	0	0	0	1	0	1	0	1	0	0	0	0	0	0	0	1	0	1	0	0
6828	0	2005	11	26	0	49	37.6	10	5.2	5.2	4.9	5.4	0	0	0	0	CHINA	0	"CHINA:  JIANGXI:  JIUJIANG, RUICHANG"	29.695	115.689	30	16	1	0	0	8000	4	0	3	150000	4	0	0	16	1	0	0	8000	4	0	3	150000	4	0	0
5097	0	1986	5	15	14	38	9.2	18	5.2	0	0	5.2	0	0	0	0	PAKISTAN	0	"PAKISTAN:  BARKHAM, MATAKARI, HAMTAROT"	29.627	69.363	60	0	0	0	0	0	0	0	3	0	0	0	0	0	0	0	0	0	0	0	3	0	0	0	0
5671	0	2003	1	11	17	45	30.6	33	5.2	5.2	5	5.2	0	0	0	0	IRAN	0	"IRAN:  KAZERUN, NURABAD"	29.59	51.474	140	0	0	0	0	0	2	0	3	650	3	650	3	0	0	0	0	0	2	0	3	650	3	1350	4
4627	0	1973	2	24	0	2	41	27	5.2	0	0	5.2	0	0	5.2	0	IRAN	0	"IRAN:  KHABIS,HENGAM ISLAND"	28.58	52.62	140	0	0	0	0	0	0	0	3	0	0	0	0	0	0	0	0	0	0	0	0	0	0	0	0
10385	0	2019	1	3	0	48	8	10	5.2	0	0	5.2	0	0	0	0	CHINA	0	CHINA:  SICHUAN:  YIBIN	28.261	104.984	30	0	0	0	0	774	3	0	2	0	0	691	3	0	0	0	0	774	3	0	2	0	0	691	3
10297	0	2013	8	27	20	44	36	10	5.2	5.2	0	0	0	0	0	0	CHINA	0	CHINA:  YUNNAN PROVINCE: SHANGRI-LA	28.239	99.328	30	0	0	0	0	0	0	0	1	36	1	36	1	0	0	0	0	0	0	0	1	36	1	36	1
4299	0	1963	7	29	6	10	    	46	5.2	0	0	0	0	0	5.2	0	IRAN	0	"IRAN:  GAHKOM,LAIGAZAN,PATKUIYEH,GOLRUIYEH,GANJ"	28.2	55.7	140	5	1	0	0	0	0	0	2	0	0	0	0	0	0	0	0	0	0	0	0	0	0	0	0
5756	0	2004	1	14	16	58	48.1	12	5.2	5.2	0	5.4	0	0	0	0	IRAN	0	IRAN:  SOUTHERN:  FIRUZABAD	27.695	52.397	140	0	0	0	0	0	0	0	1	0	0	0	0	0	0	0	0	0	0	0	1	0	0	0	0
8813	0	2009	12	31	9	57	29.7	10	5.2	0	5.2	5.5	0	0	0	0	BHUTAN	0	BHUTAN:  DAMETSI	27.319	91.51	60	0	0	0	0	2	1	0	2	0	0	0	0	0	0	0	0	2	1	0	2	0	0	700	3
8317	0	2009	4	9	1	46	58.2	44	5.2	0	0	5.2	0	0	0	0	INDIA	0	INDIA:  JAISALMER	27.143	70.749	60	0	0	0	0	6	1	0	2	0	0	0	0	0	0	0	0	6	1	0	2	0	0	0	2
8513	0	2009	8	30	19	27	48.8	82	5.2	0	0	5.2	0	0	0	0	MYANMAR (BURMA)	0	MYANMAR (BURMA);  INDIA:  SIBSAGAR	25.28	95.101	60	0	0	0	0	0	0	0	1	0	0	0	0	0	0	0	0	0	0	0	1	0	0	0	0
5776	0	2004	5	1	7	56	13.6	45	5.2	5.2	5.1	5.2	0	0	0	0	TAIWAN	0	TAIWAN:  HUALIEN: TAROKO GORGE NATIONAL PARK	24.081	121.611	30	2	1	0	0	1	1	0	1	0	0	0	0	2	1	0	0	1	1	0	1	0	0	0	0
10086	0	2014	4	14	5	7	12	10	5.2	5.2	0	0	0	0	0	0	NICARAGUA	0	"NICARAGUA:  MANAGUA, CIUDAD SANDINO"	12.151	-86.281	100	0	0	0	0	0	1	0	1	7	1	0	0	0	0	0	0	0	1	0	1	7	1	0	0
5196	0	1989	5	4	0	22	6.7	16	5.2	0	5.2	5.4	0	0	0	0	VENEZUELA	0	"VENEZUELA:  FALCON, CARABOBO, CARACAS"	11.038	-68.27	160	0	0	0	0	0	0	0	2	0	0	0	0	0	0	0	0	0	0	0	0	0	0	0	0
8169	0	2008	8	11	7	19	26.4	13	5.2	5.2	4.5	5.1	0	0	0	0	VENEZUELA	0	VENEZUELA:  CARIACO-CUMANA	10.514	-64.171	160	0	0	0	0	0	0	0	1	0	0	50	1	0	0	0	0	0	0	0	1	0	0	50	1
5303	0	1991	8	17	6	18	34	10	5.2	0	5.2	5.5	0	0	0	5	VENEZUELA	0	VENEZUELA:  BARQUISIMETO	10.045	-69.948	160	0	0	0	0	0	0	0	2	0	0	100	2	0	0	0	0	0	0	0	2	0	0	100	2
1528	0	1795	5	20	22	0	0	0	5.2	0	0	0	0	0	5.2	5	SIERRA LEONE	0	SIERRA LEONE	9.3	-13.4	10	0	0	0	0	0	0	0	2	0	0	0	0	0	0	0	0	0	0	0	0	0	0	0	0
5135	0	1987	5	23	17	9	4.4	32	5.2	0	5.2	5.1	0	0	0	2	PHILIPPINES	0	PHILIPPINES:  MINDANAO:  TALAKAG-MALAYBALAY	8.047	125.41	170	1	1	0	0	2	1	0	1	0	0	0	0	1	1	0	0	2	1	0	1	0	0	0	0
10117	0	2014	9	20	4	26	52	26	5.2	0	0	5.2	0	0	0	5	PHILIPPINES	0	PHILIPPINES:  BARANGAY LUAYON	6.864	125.233	170	0	0	0	0	1	1	0	1	15	1	67	2	0	0	0	0	1	1	0	1	15	1	67	2
4378	0	1966	9	4	22	14	    	8	5.2	0	0	0	0	0	5.2	0	COLOMBIA	0	COLOMBIA	4.6	-73.9	160	6	1	0	0	0	0	0	3	0	0	0	0	0	0	0	0	0	0	0	0	0	0	0	0
5043	0	1984	8	27	6	41	26.2	33	5.2	0	5.2	5.1	0	0	0	0	INDONESIA	0	INDONESIA:  N SUMATERA:  TARUTUNG	1.761	99.075	60	0	0	0	0	123	3	1	2	415	3	0	0	0	0	0	0	123	3	1	2	415	3	0	0
10348	0	2018	7	21	7	58	15	10	5.2	5.2	0	0	0	0	0	0	INDONESIA	0	INDONESIA: SUMATRA: SOLOK	-0.965	100.771	60	1	1	0	0	2	1	0	1	2	1	10	1	1	1	0	0	2	1	0	1	2	1	10	1
10304	0	2018	1	31	23	13	21	19	5.2	0	0	5.2	0	0	0	0	ECUADOR	0	ECUADOR:  PASTAZA	-1.756	-77.694	60	1	1	0	0	0	0	0	0	0	0	0	1	1	1	0	0	0	0	0	0	0	0	0	1
4307	0	1964	1	8	22	30	49.7	90	5.2	0	5.2	0	0	0	0	0	INDONESIA	0	INDONESIA:  SULAWESI:  PINRANG	-3.7	119.4	170	8	1	0	0	27	1	0	2	0	0	0	0	8	1	0	0	27	1	0	2	0	0	0	0
7419	0	2006	11	24	6	33	26.4	31	5.2	0	0	5.2	0	0	0	0	INDONESIA	0	INDONESIA:  SULAWESI: PINRANG	-3.728	119.233	170	0	0	0	0	0	0	0	1	0	0	0	0	0	0	0	0	0	0	0	1	0	0	0	0
4568	0	1971	6	16	14	44	22.5	35	5.2	0	0	5.2	0	0	5.2	0	INDONESIA	0	"INDONESIA:  JAVA:  BUARAN,BANTAR KAWSUN,JIPANG"	-7.2	109.1	60	1	1	0	0	6	1	0	3	0	0	1377	4	1	1	0	0	6	1	0	3	0	0	1377	4
4758	0	1977	1	26	13	11	29.8	33	5.2	0	0	5.2	0	0	5	6	INDONESIA	0	"INDONESIA:  BALI: KAYUBIHI,BANJAR ANTUGAN JEHEM"	-8.22	115.19	60	0	0	0	0	0	0	0	1	0	0	0	0	0	0	0	0	0	0	0	0	0	0	0	0
4922	0	1981	6	22	17	53	21.3	24	5.2	0	5.2	5.1	0	0	0	0	PERU	0	PERU:  CENTRAL	-13.166	-74.522	160	10	1	0	0	0	2	5	2	0	0	0	0	10	1	0	0	0	2	5	2	0	0	0	0
4756	0	1976	12	8	8	38	25.7	33	5.2	0	0	5.2	0	0	5.2	0	SOUTH AFRICA	0	SOUTH AFRICA	-27.953	26.653	10	4	1	0	0	36	1	0	2	0	0	0	0	4	1	0	0	36	1	0	2	0	0	0	0
9033	0	2010	4	20	0	17	8	0	5.2	0	0	5.2	5	0	0	0	AUSTRALIA	0	AUSTRALIA:  KALGOORLIE	-30.794	121.406	60	0	0	0	0	3	1	0	1	0	0	0	0	0	0	0	0	3	1	0	1	0	0	0	1
10007	0	2013	6	18	23	2	9.8	10	5.3	5.3	0	5.6	0	0	0	0	RUSSIA	0	RUSSIA:  KEMEROVO	54.263	86.173	40	0	0	0	0	0	0	0	1	0	0	500	3	0	0	0	0	0	0	0	1	0	0	500	3
4814	0	1978	9	3	5	8	30.2	8	5.3	0	5.3	4.9	5.9	0	5.3	8	GERMANY	0	GERMANY	48.29	9.01	120	0	0	0	0	0	3	150	4	0	0	0	0	0	0	0	0	0	0	0	0	0	0	0	0
4612	0	1972	9	7	22	26	57.9	33	5.3	0	5.3	0	0	0	5.6	8	FRANCE	0	"FRANCE:  LABOIRIE, ARCEAU, SAINT-PIERRE D'OLERON"	46	-1.1	120	0	0	0	0	0	0	0	2	0	0	0	0	0	0	0	0	0	0	0	0	0	0	0	0
71	0	243	0	0	0	0	    	0	5.3	0	0	0	0	0	5.3	0	ITALY	0	"ITALY:  VERONA,BENACO"	45.3	11	130	0	0	0	0	0	0	0	4	0	0	0	0	0	0	0	0	0	0	0	0	0	0	0	0
270	0	894	0	0	0	0	    	0	5.3	0	0	0	0	0	5.3	0	ITALY	0	ITALY:  VERONA	45.3	11	130	0	2	0	0	0	0	0	2	0	0	0	0	0	0	0	0	0	0	0	0	0	0	0	0
4263	0	1962	4	25	0	0	    	0	5.3	0	0	0	0	0	5.3	8	FRANCE	0	"FRANCE:  CORRENCON,CHATEAU-BERNARD,LE GUA,RENCUREL"	45	5.6	120	0	0	0	0	0	0	0	2	0	0	0	0	0	0	0	0	0	0	0	0	0	0	0	0
10306	0	2013	11	22	22	4	4	10	5.3	5.3	0	0	0	0	0	0	CHINA	0	CHINA:  JILIN PROVINCE:  SONGYUAN	44.599	124.168	30	0	0	0	0	0	0	0	2	0	0	5300	4	0	0	0	0	0	0	0	2	0	0	5300	4
5720	0	2003	9	14	21	42	51.8	10	5.3	5.3	5.2	5.1	0	0	0	7	ITALY	0	"ITALY:  LOIANO, MONGHIDORO, MONZUNO"	44.329	11.45	130	0	0	0	0	0	2	0	1	0	0	10	1	0	0	0	0	0	2	0	1	0	0	10	1
5685	0	2003	2	13	17	34	20.9	24	5.3	5.3	5.2	5.2	0	0	0	0	CHINA	0	CHINA:  N. XINJIANG:  URUMQI	43.897	85.923	40	0	0	0	0	0	0	0	1	0	0	0	0	0	0	0	0	0	0	0	1	0	0	0	0
1107	0	1688	0	0	0	0	0	15	5.3	0	5.3	0	0	0	0	7	RUSSIA	0	RUSSIA:  TERSK	43.7	44.7	40	0	0	0	0	0	0	0	2	0	0	0	0	0	0	0	0	0	0	0	1	0	0	0	0
5035	0	1984	4	29	5	3	    	12	5.3	0	5.3	5.2	0	0	0	8	ITALY	0	ITALY:  CENTRAL:  :PERUGIA-ASSISSI-GUBBIO	43.26	12.558	130	3	1	0	0	200	3	25	4	0	0	0	0	3	1	0	0	200	3	25	4	0	0	0	0
4414	0	1967	8	13	22	7	47.5	15	5.3	0	5.3	0	0	0	5.9	8	FRANCE	0	"FRANCE:  ARETTE,LANNE,MONTORY,ARAMITS,HAUX,SUNHAR"	43.2	-0.5	120	1	1	0	0	80	2	0	2	0	3	0	0	0	1	0	0	80	2	0	2	0	3	0	0
9857	0	2011	6	8	1	53	26	21	5.3	0	0	5.3	0	0	0	0	CHINA	0	CHINA:  XINJIANG PROVINCE:  DABANCHENG	43.015	88.247	40	0	0	0	0	8	1	0	1	0	0	50	1	0	0	0	0	8	1	0	1	0	0	50	1
4470	0	1968	11	3	4	49	    	17	5.3	0	0	0	0	0	5.3	0	MONTENEGRO	0	BALKANS NW:  MONTENEGRO	42.1	19.3	130	1	1	0	0	0	0	38.6	4	0	0	0	0	0	0	0	0	0	0	0	0	0	0	0	0
7281	Tsu	1979	4	9	2	10	20.3	10	5.3	0	5.3	0	0	0	0	0	MONTENEGRO	0	MONTENEGRO: BAR ULCINJ	41.956	19.023	130	0	0	0	0	0	0	0	0	0	0	0	0	0	0	0	0	0	0	0	0	0	0	0	0
5506	0	1998	9	30	23	42	54.2	10	5.3	5.3	5.1	5	0	0	0	0	ALBANIA	0	"ALBANIA:  KUKES, PESHKOPI"	41.925	20.39	130	0	0	0	0	0	0	0	2	700	3	0	0	0	0	0	0	0	0	0	2	700	3	0	0
10346	0	2018	6	5	18	40	30	24	5.3	5.3	0	0	0	0	0	0	AZERBAIJAN	0	AZERBAIJAN: SHAKI-ZAQATALA	41.526	46.785	40	1	1	0	0	31	1	0	1	0	0	0	1	1	1	0	0	31	1	0	1	0	0	0	1
372	0	1088	4	22	0	0	    	10	5.3	0	0	0	0	0	5.3	0	GEORGIA	0	GEORGIA:  TMOGVI	41.4	43.2	40	0	3	0	0	0	0	0	3	0	0	0	0	0	0	0	0	0	0	0	0	0	0	0	0
8382	0	2009	5	24	16	17	50.8	0	5.3	5.3	0	5.2	5.5	0	0	0	MACEDONIA	0	BALKANS NW:  MACEDONIA	41.303	22.714	130	0	0	0	0	0	0	0	2	0	0	0	0	0	0	0	0	0	0	0	2	0	0	0	3
5050	0	1984	10	18	9	46	24.6	60	5.3	0	0	5.3	0	0	0	0	TURKEY	0	"TURKEY:  E, SENKAYA"	40.545	42.403	140	3	1	0	0	35	1	0	3	75000	4	0	0	3	1	0	0	35	1	0	3	75000	4	0	0
5541	0	1999	11	1	13	25	16.5	10	5.3	5.3	5.3	5.1	5.5	0	0	0	CHINA	0	CHINA:  SHANXI:  NORTHEASTERN	39.899	113.983	30	0	0	0	0	4	1	44	4	6000	4	0	0	0	0	0	0	4	1	44	4	6000	4	0	0
5215	0	1989	10	18	14	57	22.4	10	5.3	0	5.3	5.1	0	0	0	8	CHINA	0	CHINA:  SHANXI AND HEBEI PROVINCES; DATONG	39.893	113.884	30	29	1	0	0	193	3	0	3	30000	4	0	0	29	1	0	0	193	3	0	3	30000	4	0	0
9072	0	1924	5	13	1	52	33	0	5.3	0	5.3	0	0	0	0	9	TURKEY	0	TURKEY:  ERZURUM	39.7	42.8	140	50	1	0	0	0	0	0	2	0	3	0	0	50	1	0	0	0	0	0	2	0	3	0	0
10405	0	2017	2	6	3	52	4	10	5.3	5.3	0	0	0	0	0	0	TURKEY	0	TURKEY:  CANAKKALE	39.599	26.065	140	0	0	0	0	5	1	0	2	0	0	90	2	0	0	0	0	5	1	0	2	0	0	90	2
6765	0	2005	7	30	21	45	    	5	5.3	5.3	4.8	4.8	0	0	0	0	TURKEY	0	"TURKEY:  BAHCEKARADALAK, SIRAPINAR, YENIYAPANSEYHLI"	39.437	33.089	140	0	0	0	0	0	0	0	1	0	0	0	0	0	0	0	0	0	0	0	1	0	0	0	0
4434	0	1968	4	29	17	1	57.6	34	5.3	0	5.3	0	0	0	0	7	IRAN	0	"IRAN:  MAKU,SHAH BANDALU,QURTA BOLAGH,QONDEQLI"	39.2	44.3	140	38	1	0	0	100	2	1	2	1000	2	0	0	38	1	0	0	100	2	1	2	1000	2	0	0
5615	0	2002	1	9	6	45	57.5	33	5.3	5.3	5.2	5.2	0	0	0	0	TAJIKISTAN	0	TAJIKISTAN:  ROGHUN	38.673	69.902	40	3	1	0	0	50	1	0	2	0	0	209	3	3	1	0	0	50	1	0	2	0	0	209	3
3293	Tsu	1926	8	17	1	42	0	100	5.3	0	5.3	0	0	0	0	7	ITALY	0	ITALY:  SALINA ISLAND	38.567	14.833	130	0	0	0	0	0	0	0	3	0	0	0	0	0	0	0	0	0	0	0	0	0	0	0	0
5187	0	1989	1	22	23	2	7.1	33	5.3	0	0	5.3	0	0	0	7	TAJIKISTAN	0	"TAJIKISTAN:  SHARORA, GISSAR"	38.465	68.694	40	274	3	0	0	0	0	24.8	3	0	0	0	0	0	0	0	0	0	0	0	0	0	0	0	0
7823	0	2008	4	18	9	36	59.1	14	5.3	5.3	4.8	5.1	0	0	0	0	USA	0	ILLINOIS:  WEST SALEM	38.452	-87.886	150	0	0	0	0	0	0	0	1	0	0	0	1	0	0	0	0	0	0	0	1	0	0	0	1
9891	0	2011	12	1	12	48	17.7	32	5.3	0	0	5.3	5.6	0	0	0	CHINA	0	"CHINA:  XINJIANG PROVINCE:  SOUTHERN, KASHI"	38.31	76.888	40	0	0	0	0	0	0	0	2	0	0	300	3	0	0	0	0	0	0	0	2	0	0	300	3
3440	0	1931	1	4	0	0	    	0	5.3	0	0	0	0	0	5.3	8	GREECE	0	GREECE:  CORINTH-ISTHMIA (CORINTHIA)	38	23	130	0	2	0	0	0	0	0	0	0	0	0	0	0	0	0	0	0	0	0	0	0	0	0	0
5182	0	1988	11	21	16	55	52.5	11	5.3	0	5.3	5.8	0	0	0	7	AZORES (PORTUGAL)	0	AZORES:  SAO MIGUEL ISLAND	37.938	-26.142	130	0	0	0	0	0	0	0	2	0	0	0	0	0	0	0	0	0	0	0	0	0	0	0	0
5268	Tsu	1990	12	13	0	24	25.7	11	5.3	0	5.3	5.5	0	0	0	7	ITALY	0	ITALY:  SICILY:  CARLENTINI	37.3	15.438	130	19	1	0	0	200	3	500	4	0	0	0	0	19	1	0	0	200	3	500	4	0	0	0	0
9949	0	2012	6	14	5	52	53.6	5	5.3	0	0	5.3	5.5	0	0	0	TURKEY	0	TURKEY:  SIRNAK	37.294	42.325	140	0	0	0	0	23	1	0	1	0	0	25	1	0	0	0	0	23	1	0	1	0	0	25	1
8084	0	1966	4	20	14	31	15	0	5.3	0	5.3	0	0	0	0	0	CHINA	0	CHINA:  HEBEI PROVINCE	37.25	114.78	30	0	0	0	0	0	0	0	1	22	1	0	0	0	0	0	0	0	0	0	1	22	1	0	0
3860	0	1947	8	6	9	36	40	0	5.3	0	5.3	0	0	0	0	9	ALGERIA	0	ALGERIA	37	8	15	3	1	0	0	0	3	0	2	0	0	0	0	3	1	0	0	0	3	0	2	0	0	0	0
5739	0	1999	11	26	4	27	24.7	33	5.3	5.3	4.8	5.2	0	0	0	0	IRAN	0	IRAN:  GORGAN	36.92	54.9	140	0	0	0	0	0	0	0	1	0	0	50	1	0	0	0	0	0	0	0	1	0	0	50	1
5250	0	1990	6	21	9	2	14.6	15	5.3	0	5.3	5.8	0	0	0	0	IRAN	0	"IRAN:  LOWSHAN, MANJIL"	36.636	49.799	140	20	1	0	0	0	0	0	1	0	0	0	0	20	1	0	0	0	0	0	1	0	0	0	0
4559	0	1971	2	14	16	27	36.1	39	5.3	0	5.3	5.2	0	0	0	0	IRAN	0	"IRAN:  JAILAN,BOKRAN,HOSSEINABAD,SHARIFABAD"	36.6	55.6	140	1	1	0	0	0	0	0	2	0	0	0	0	0	0	0	0	0	0	0	0	0	0	0	0
3631	0	1939	1	2	4	35	    	0	5.3	0	0	0	0	0	5.3	0	TURKEY	0	TURKEY	36.3	30.7	140	0	0	0	0	0	0	0	3	0	0	0	0	0	0	0	0	0	0	0	0	0	0	0	0
4579	0	1971	8	9	2	54	36.7	27	5.3	0	5.3	5.2	0	0	5.3	0	IRAN	0	IRAN:  BABOL-KENAR	36.3	52.7	140	1	1	0	0	0	0	0	2	0	0	0	0	0	0	0	0	0	0	0	0	0	0	0	0
9866	0	2012	1	19	12	35	51.3	8	5.3	5.3	0	5.6	0	0	0	0	IRAN	0	IRAN:  KHORASAN-E-RAZAVI	36.288	58.835	140	0	0	0	0	238	3	0	1	0	0	0	2	0	0	0	0	238	3	0	1	0	0	0	2
4258	0	1962	2	18	0	0	    	0	5.3	0	0	0	0	0	5.3	8	TUNISIA	0	"TUNISIA:  GAFOUR,OUM-ZID,EL AKHOUAT"	36	9	15	0	0	0	0	0	0	0	2	0	0	0	0	0	0	0	0	0	0	0	0	0	0	0	0
7970	0	1814	2	4	0	0	0	0	5.3	0	5.3	0	0	0	0	7	CHINA	0	CHINA:  HENAN PROVINCE	35.8	114.4	30	4	1	0	0	0	3	0	1	0	2	0	0	4	1	0	0	0	3	0	1	0	2	0	0
7284	0	1983	8	8	3	47	57.1	25	5.3	0	5.3	5.9	0	0	0	0	JAPAN	0	JAPAN:  HONSHU:  S COAST	35.5	139.07	30	1	1	0	0	28	1	0	1	0	2	0	0	1	1	0	0	28	1	0	1	0	2	0	0
5554	0	2000	2	2	22	58	1.5	33	5.3	5.3	5.3	5.1	0	0	0	0	IRAN	0	"IRAN:  BARDASKAN, KASHMAR"	35.288	58.218	140	1	1	0	0	15	1	0	2	100	2	100	2	1	1	0	0	15	1	0	2	100	2	300	3
5002	0	1983	11	6	21	9	45.2	19	5.3	0	5.3	5.7	0	0	0	7	CHINA	0	"CHINA:  E, HEZE-DONGMING, SHANDONG PROVINCE"	35.206	115.213	30	34	1	0	0	2200	4	5	2	3300	4	0	0	34	1	0	0	2200	4	5	2	3300	4	0	0
1701	0	1827	3	23	0	0	0	0	5.3	0	5.3	0	0	0	0	7	CHINA	0	CHINA:  SHANXI PROVINCE	34.9	111.1	30	84	2	0	0	0	2	0	1	55	2	0	0	84	2	0	0	0	2	0	1	55	2	0	0
10322	0	2018	4	1	8	35	27	10	5.3	0	0	5.3	0	0	0	0	IRAN	0	IRAN:  KERMANSHAH	34.456	45.764	140	0	0	0	0	54	2	0	0	0	0	0	0	0	0	0	0	54	2	0	0	0	0	0	0
4302	0	1963	9	2	1	34	    	25	5.3	0	0	0	0	0	5.3	0	INDIA	0	INDIA:  KASHMIR:  SW	33.9	74.8	60	80	2	0	0	0	0	0	2	0	0	0	0	0	0	0	0	0	0	0	0	0	0	0	0
8055	0	1960	2	2	23	51	59	0	5.3	0	5.3	0	0	0	0	6	CHINA	0	CHINA:  GANSU PROVINCE	33.8	104.5	30	0	0	0	0	0	0	0	1	0	1	0	0	0	0	0	0	0	0	0	1	0	1	0	0
9860	0	2011	6	26	7	48	16.7	29	5.3	0	0	5.3	0	0	0	0	CHINA	0	CHINA:  QINGHAI PROVINCE	32.447	95.948	40	0	0	0	0	0	0	0	1	10	1	0	3	0	0	0	0	0	0	0	1	10	1	0	3
5093	0	1986	4	26	7	35	16.1	33	5.3	0	5.3	5.5	0	0	0	0	INDIA	0	"INDIA:  KASHMIR:  DHARMSALA,  LAHORE, PAKISTAN"	32.128	76.374	60	6	1	0	0	30	1	0	3	0	0	0	0	6	1	0	0	60	1	0	3	0	0	0	3
5760	Tsu	2004	2	11	8	15	3.8	27	5.3	5.3	4.8	5.1	0	0	0	0	JORDAN	0	"JORDAN:  MA'IN; ISRAEL:  JERUSALEM, PETAH-TIQWA"	31.675	35.551	140	0	0	0	0	4	1	0	2	0	0	0	2	0	0	0	0	4	1	0	2	0	0	0	2
8038	0	1954	6	17	2	8	39	0	5.3	0	5.3	0	0	0	0	6	CHINA	0	CHINA:  ANHUI PROVINCE	31.6	116.6	30	0	0	0	0	0	0	0	1	0	1	0	0	0	0	0	0	0	0	0	1	0	1	0	0
5642	0	2002	8	8	11	42	5	33	5.3	5.3	4.7	5.4	0	0	0	0	CHINA	0	CHINA:  SICHUAN PROVINCE:  RULONG	30.916	99.927	30	0	0	0	0	0	0	0	1	8	1	8	1	0	0	0	0	0	0	0	1	8	1	0	0
10329	0	2018	5	2	4	8	13	10	5.3	5.3	0	0	0	0	0	0	IRAN	0	IRAN:  KOHGILUYEH AND BOYER-AHMAD: SISAKHT	30.715	51.485	140	0	0	0	0	133	3	0	2	0	0	0	1	0	0	0	0	133	3	0	2	0	0	0	1
7252	0	2005	12	14	7	9	54.1	44	5.3	0	0	5.3	0	0	0	0	INDIA	0	"INDIA:  JAUSARI, CHAMOLI, NANDPRAYAG"	30.476	79.255	60	1	1	0	0	4	1	0	2	1	1	1	1	1	1	0	0	4	1	0	2	1	1	0	0
4608	0	1972	7	2	12	56	6.7	31	5.3	0	5.3	5.4	0	0	5.4	0	IRAN	0	"IRAN:  MISHAN-E-MARKAZI,TALKHAB,MISHAN SOFLA"	30.1	50.8	140	0	0	0	0	0	0	0	2	0	0	0	0	0	0	0	0	0	0	0	0	0	0	0	0
4446	0	1968	6	23	9	16	    	32	5.3	0	0	0	0	0	5.3	0	IRAN	0	"IRAN:  GHALEGH SEYED,KHESHT,KONAR TAKHTEH"	29.8	51.2	140	0	0	0	0	0	0	0	3	0	0	0	0	0	0	0	0	0	0	0	0	0	0	0	0
