I_D	FLAG_TSUNAMI	YEAR	MONTH	DAY	HOUR	MINUTE	SECOND	FOCAL_DEPTH	EQ_PRIMARY	EQ_MAG_MW	EQ_MAG_MS	EQ_MAG_MB	EQ_MAG_ML	EQ_MAG_MFA	EQ_MAG_UNK	INTENSITY	COUNTRY	STATE	LOCATION_NAME	LATITUDE	LONGITUDE	REGION_CODE	DEATHS	DEATHS_DESCRIPTION	MISSING	MISSING_DESCRIPTION	INJURIES	INJURIES_DESCRIPTION	DAMAGE_MILLIONS_DOLLARS	DAMAGE_DESCRIPTION	HOUSES_DESTROYED	HOUSES_DESTROYED_DESCRIPTION	HOUSES_DAMAGED	HOUSES_DAMAGED_DESCRIPTION	TOTAL_DEATHS	TOTAL_DEATHS_DESCRIPTION	TOTAL_MISSING	TOTAL_MISSING_DESCRIPTION	TOTAL_INJURIES	TOTAL_INJURIES_DESCRIPTION	TOTAL_DAMAGE_MILLIONS_DOLLARS	TOTAL_DAMAGE_DESCRIPTION	TOTAL_HOUSES_DESTROYED	TOTAL_HOUSES_DESTROYED_DESCRIPTION	TOTAL_HOUSES_DAMAGED	TOTAL_HOUSES_DAMAGED_DESCRIPTION
2040	Tsu	1859	10	5	12	0	0	0	7.6	0	7.6	0	0	0	0	10	CHILE	0	CHILE	-27.35	-70.35	160	10	1	0	0	0	0	0.93	1	339	3	0	0	10	1	0	0	0	0	0	2	339	3	0	0
2148	Tsu	1868	10	21	15	53	    	0	6.8	0	0	0	6.8	0	0	9	USA	CA	"CALIFORNIA:  HAYWARD,SAN FRANCISCO"	37.7	-122.1	150	30	1	0	0	0	0	0.35	1	0	2	0	0	30	1	0	0	0	0	0.35	1	0	3	0	0
2195	Tsu	1872	3	26	10	30	0	0	7.8	7.8	0	0	7.3	0	0	10	USA	CA	CALIFORNIA:  OWENS VALLEY	36.7	-118.1	150	27	1	0	0	56	2	0.25	1	52	2	0	0	27	1	0	0	56	2	0.25	1	52	2	0	0
2248	Tsu	1877	5	10	0	59	0	40	8.3	0	8.3	0	0	0	0	11	CHILE	0	CHILE:  OFF NORTH COAST	-21.5	-70.5	160	103	2	0	0	0	0	1.6	2	0	3	0	0	2385	4	0	0	0	0	0	3	0	3	0	0
2362	Tsu	1886	9	1	2	51	    	0	7.3	7.3	0	0	0	0	0	10	USA	SC	SOUTH CAROLINA:  CHARLESTON	32.9	-80	150	60	2	0	0	0	0	5	2	0	0	0	0	60	2	0	0	0	0	6	3	0	0	0	0
2779	Tsu	1906	8	17	0	40	0	25	8.2	8.2	8.4	0	0	0	0	11	CHILE	0	CHILE:  SOUTH CENTRAL	-33	-72	160	4000	4	0	0	0	0	100	4	0	0	0	0	4000	4	0	0	0	0	100	4	0	0	0	0
2801	Tsu	1907	1	14	21	36	    	0	6.5	0	0	0	0	0	6.5	0	JAMAICA	0	JAMAICA:  KINGSTON	18.2	-76.8	90	1000	3	0	0	0	0	30	4	0	3	0	0	1000	3	0	0	0	0	30	4	0	3	0	0
2846	Tsu	1908	12	28	4	20	27	40	7	7	7.2	0	0	0	0	11	ITALY	0	"ITALY:  MESSINA, SICILY, CALABRIA"	38.17	15.58	130	78000	4	0	0	0	0	116	4	0	4	0	0	80000	4	0	0	0	0	116	4	0	4	0	0
3025		1915	1	13	6	52	38	10	7.5	0	7.5	0	0	0	0	11	ITALY	0	"ITALY:  MARSICA, AVEZZANO, ABRUZZI"	42	13.5	130	29978	4	0	0	0	0	60	4	0	0	0	0	29978	4	0	0	0	0	60	4	0	0	0	0
3165	Tsu	1920	12	16	12	5	54.7	25	8.3	8.3	8.6	0	0	0	0	12	CHINA	0	"CHINA:  GANSU PROVINCE, SHANXI PROVINCE"	36.601	105.317	30	200000	4	0	0	0	0	25	4	0	0	0	0	200000	4	0	0	0	0	25	4	0	0	0	0
3227	Tsu	1923	9	1	2	58	37	35	7.9	7.9	7.9	0	0	0	0	0	JAPAN	0	"JAPAN:  TOKYO, YOKOHAMA"	35.1	139.5	30	142807	4	43476	4	47000	4	600	4	0	0	0	0	142807	4	43476	4	47000	4	600	4	695000	4	0	0
3270		1925	6	29	14	42	26.2	10	6.8	6.8	6.3	0	0	0	0	9	USA	CA	CALIFORNIA:  SANTA BARBARA	34.418	-120.196	150	13	1	0	0	0	0	8	3	0	3	0	0	13	1	0	0	0	0	8	3	0	3	0	0
3306	Tsu	1927	3	7	9	27	0	10	7.3	0	7.3	0	0	0	0	0	JAPAN	0	JAPAN:  HONSHU:  SW	35.6	135.1	30	3022	4	0	0	3295	4	40	4	15594	4	9821	4	3022	4	0	0	3295	4	40	4	15594	4	9821	4
3450	Tsu	1931	2	2	22	46	51.3	35	7.7	7.7	7.8	0	0	0	0	9	NEW ZEALAND	0	NEW ZEALAND:  HAWKE BAY	-39.772	176.025	170	256	3	2	1	400	3	25	4	0	0	0	0	256	3	2	1	400	3	25	4	0	0	0	0
3550	Tsu	1935	5	30	21	32	46	33	7.5	0	7.5	0	0	0	0	10	PAKISTAN	0	PAKISTAN:  QUETTA	29.5	66.8	60	60000	4	0	0	0	0	25	4	0	4	0	4	60000	4	0	0	0	0	25	4	0	4	0	0
3561		1935	10	19	4	48	2	0	6.2	0	6.2	0	0	0	0	8	USA	MT	MONTANA:  HELENA	46.6	-112	150	2	1	0	0	0	3	19	3	300	3	0	0	2	1	0	0	0	3	19	3	300	3	0	0
3563		1935	10	31	18	37	47	0	6	0	6	0	5.5	0	0	8	USA	MT	MONTANA:  HELENA	46.6	-112	150	2	1	0	0	0	0	6	3	0	0	0	0	2	1	0	0	0	0	6	3	0	0	0	0
3632	Tsu	1939	1	25	3	32	14	60	8.3	0	8.3	0	0	0	0	10	CHILE	0	CHILE:  CHILLAN	-36.25	-72.25	160	30000	4	0	0	0	0	920	4	0	4	0	0	30000	4	0	0	0	0	920	4	0	4	0	0
6510	Tsu	1939	12	26	23	57	22.6	35	7.7	7.7	7.8	0	0	0	0	12	TURKEY	0	TURKEY:  ERZINCAN	39.77	39.533	140	32700	4	0	0	0	0	20	3	0	4	0	0	32700	4	0	0	0	0	20	3	0	4	0	0
3662		1940	5	19	4	36	40.9	16	7.2	0	7.2	6.9	6.4	0	0	10	USA	CA	CALIFORNIA; MEXICO	32.733	-115.5	150	9	1	0	0	0	0	33	4	0	0	0	0	9	1	0	0	0	0	33	4	0	0	0	0
3699		1942	5	14	2	13	    	30	7.9	0	7.9	7.7	0	0	0	9	ECUADOR	0	ECUADOR:  GUAYAQUIL	-0.75	-81.5	160	200	3	0	0	0	0	2.5	2	0	3	0	0	200	3	0	0	0	0	2.5	2	0	3	0	0
3811	Tsu	1945	11	27	21	56	50	15	8	8	8	7.7	0	0	0	10	PAKISTAN	0	PAKISTAN:  MAKRAN COAST	24.5	63	60	4000	4	0	0	0	0	25	4	0	0	0	0	4000	4	0	0	0	0	25	4	0	0	0	0
3869	Tsu	1948	1	24	17	46	40	33	8.3	0	8.3	0	0	0	0	9	PHILIPPINES	0	"PHILIPPINES:  PANAY, ILOILO CITY, ANTIQUE"	10.5	122	170	72	2	0	0	0	0	3.5	2	0	3	0	3	74	2	0	0	0	0	3.5	2	0	3	0	3
3884		1948	6	28	7	13	    	20	7.3	0	0	0	0	0	7.3	0	JAPAN	0	JAPAN:  FUKUI	36.5	136	30	5131	4	0	0	11000	4	1000	4	63000	4	18543	4	5131	4	0	0	11000	4	1000	4	63000	4	18543	4
3891		1948	10	5	20	12	7	18	7.3	0	7.3	0	0	0	0	10	TURKMENISTAN	0	TURKMENISTAN:  ASHKHABAD	37.95	58.32	40	110000	4	0	0	0	4	25	4	0	4	0	0	110000	4	0	0	0	4	25	4	0	4	0	0
3898	Tsu	1949	4	13	19	55	42	0	7	0	7	6.9	0	0	0	8	USA	WA	WASHINGTON	47.167	-122.617	150	8	1	0	0	0	0	25	4	0	0	0	0	8	1	0	0	0	0	25	4	0	0	0	0
3950	Tsu	1950	8	15	14	9	30	33	8.6	8.6	8.6	8	0	0	0	11	INDIA	0	INDIA-CHINA	28.5	96.5	60	1530	4	0	0	0	0	20	3	0	0	0	0	1530	4	0	0	0	0	20	3	0	0	0	0
3970		1951	5	6	23	8	    	100	6.5	0	0	0	0	0	6.5	0	EL SALVADOR	0	EL SALVADOR:  JUCUAPA	13	-87.8	100	1100	4	0	0	0	0	23	3	0	0	0	0	1100	4	0	0	0	0	23	3	0	0	0	0
3999		1952	7	21	11	52	14	16	7.7	0	7.7	7.3	7.2	0	7.7	11	USA	CA	CALIFORNIA:  KERN COUNTY	35	-119.017	150	12	1	0	0	0	3	60	4	0	3	0	2	12	1	0	0	0	3	60	4	0	3	0	2
4002		1952	8	22	22	41	24	16	5.8	0	0	0	5.8	0	0	8	USA	CA	CALIFORNIA:  KERN COUNTY	35.333	-118.917	150	2	1	0	0	0	2	10	3	90	2	0	0	2	1	0	0	0	0	10	3	90	2	0	0
4014		1953	3	18	19	6	11	0	7.5	0	7.5	0	0	0	0	0	TURKEY	0	"TURKEY:  YENICE, ONON"	40	27.5	140	1070	4	0	0	0	0	3.57	2	0	0	0	0	1070	4	0	0	0	0	3.57	2	0	0	0	0
4021	Tsu	1953	5	6	17	16	43	60	7.6	0	0	0	7.6	0	0	10	CHILE	0	"CHILE:  CHILLAN, CONCEPCION"	-36.5	-72.5	160	9	1	0	0	26	1	500	4	0	0	0	0	9	1	0	0	26	1	500	4	0	0	0	0
4029	Tsu	1953	8	12	9	23	52	0	7.2	0	7.2	0	0	0	0	10	GREECE	0	GREECE:  LIXOURI-ARGOSTOLI (KEPHALLENIA)	38.3	20.8	130	476	3	0	0	2412	4	100	4	27773	4	0	0	476	3	0	0	2412	4	100	4	27773	4	0	0
4055	Tsu	1954	9	9	1	4	37	0	6.7	0	6.7	0	0	0	0	11	ALGERIA	0	ALGERIA:  ORLEANSVILLE	36.283	1.467	15	1243	4	0	0	5000	4	6	3	20000	4	0	0	1243	4	0	0	5000	4	6	3	20000	4	0	0
4139	Tsu	1957	7	28	8	40	1	25	7.9	0	7.9	0	0	0	0	7	MEXICO	0	"MEXICO:  ACAPULCO,MEXICO CITY"	16.5	-99.1	150	65	2	0	0	0	3	25	4	0	3	0	0	65	2	0	0	0	3	25	4	0	3	0	0
4199	Tsu	1959	8	18	6	37	13.5	5	7.7	0	0	0	7.7	0	7.1	10	USA	MT	MONTANA:  HEBGEN LAKE	44.712	-111.215	150	28	1	0	0	0	0	11	3	0	0	0	0	28	1	0	0	0	0	11	3	0	0	0	0
4216	Tsu	1960	2	29	23	40	14	33	5.9	0	5.9	0	0	0	0	10	MOROCCO	0	MOROCCO:  AGADIR	30.45	-9.62	15	13100	4	0	0	25000	4	120	4	0	3	0	0	13100	4	0	0	25000	4	120	4	0	3	0	0
4227	Tsu	1960	5	22	19	11	17	33	9.5	9.5	8.5	0	0	0	0	12	CHILE	0	"CHILE:  PUERTO MONTT, VALDIVIA"	-38.143	-73.407	160	2000	4	0	0	3000	4	1000	4	58622	4	0	0	2226	4	0	0	3000	4	1000	4	58622	4	0	0
4276		1962	9	1	19	20	39.9	27	7.2	0	7.2	0	0	0	0	9	IRAN	0	IRAN:   BUYIN-ZARA	35.63	49.87	140	12225	4	0	0	2776	4	30	4	21310	4	0	0	12225	4	0	0	2776	4	30	4	21310	4	0	0
4285		1963	2	21	17	14	31	5	5.4	0	5.4	5.3	0	0	0	0	LIBYA	0	LIBYA:  BARCE (AL MARJ)	32.6	21	15	300	3	0	0	375	3	5	2	0	3	0	3	300	3	0	0	375	3	5	2	0	3	0	0
4297		1963	7	26	4	17	12	5	6	0	6	0	0	0	0	10	MACEDONIA	0	BALKANS NW:  MACEDONIA:  SKOPJE	42.1	21.3	130	1070	4	0	0	3300	4	1000	4	0	4	0	0	1070	4	0	0	3300	4	1000	4	0	4	0	0
4311	Tsu	1964	3	28	3	36	    	33	9.2	9.2	8.4	0	0	0	0	10	USA	AK	ALASKA	61.017	-147.648	150	15	1	0	0	0	0	284	4	0	3	0	0	139	3	0	0	0	0	400	4	0	3	0	0
4322	Tsu	1964	6	16	4	1	44.3	40	7.5	0	0	0	0	0	7.5	5	JAPAN	0	JAPAN:  HONSHU:  W COAST	38.65	139.2	30	26	1	0	0	450	3	80	4	2250	4	2250	4	26	1	0	0	450	3	80	4	2250	4	0	0
4333		1965	1	1	21	38	29.2	10	5.5	0	5.5	0	0	0	0	0	ALGERIA	0	ALGERIA:  M'SILA	35.7	4.4	15	4	1	0	0	350	3	2	2	25000	4	0	0	4	1	0	0	350	3	2	2	2500	4	0	0
4341	Tsu	1965	3	9	17	57	53.7	18	6.3	0	6.3	0	0	0	0	0	GREECE	0	"GREECE:  ALONISOS, SKOPELOS"	39.4	24	130	38	1	0	0	253	3	8	3	0	0	0	0	38	1	0	0	253	3	8	3	0	3	0	0
4351		1965	4	29	15	28	43.7	59	6.6	0	6.6	6.5	0	0	6.5	8	USA	WA	WASHINGTON:  SEATTLE	47.4	-122.3	150	7	1	0	0	0	0	28	4	0	0	0	0	7	1	0	0	0	0	28	4	0	0	0	0
4353		1965	5	3	10	1	35.2	23	6	0	6	0	0	0	0	6	EL SALVADOR	0	EL SALVADOR:  SAN MARCOS	13.5	-89.3	100	125	3	0	0	1138	4	35	4	0	0	0	0	125	3	0	0	1138	4	35	4	0	0	0	0
4362		1966	3	20	1	42	49.9	36	7	0	7	0	0	0	0	0	UGANDA	0	"UGANDA:  KICHWAMBA, BONDIBOGYO"	0.6	30.2	10	140	3	0	0	0	3	1.5	2	0	0	0	0	140	3	0	0	0	3	1.5	2	0	0	0	0
4369		1966	6	27	10	41	9.5	23	6.3	0	6.3	6	0	0	0	8	NEPAL	0	NEPAL-INDIA	29.554	80.854	60	80	2	0	0	100	2	1	2	5200	4	0	0	80	2	0	0	100	2	1	2	5200	4	0	0
4381	Tsu	1966	10	17	21	41	56	38	8.1	8.1	7.5	0	0	0	0	9	PERU	0	"PERU:  LIMA,HUACHO,HUAURA, CHANCAY,SUPE,SAN NICOLAS"	-10.748	-78.638	160	110	3	0	0	3000	4	35	4	0	0	0	0	110	3	0	0	3000	4	35	4	0	0	0	0
4383	Tsu	1966	12	28	8	18	7.4	47	7.8	0	7.8	0	0	0	0	8	CHILE	0	"CHILE:  TALTAL, CATALINA"	-25.5	-70.7	160	3	1	0	0	6	1	0.4	1	0	3	0	0	3	1	0	0	6	1	0.4	1	0	3	0	0
4410	Tsu	1967	7	29	23	59	58.7	10	6.5	0	6.5	0	0	0	0	8	VENEZUELA	0	VENEZUELA	10.6	-67.3	90	300	3	0	0	1536	4	140	4	0	0	0	0	300	3	0	0	1536	4	140	4	0	0	0	0
4425		1968	1	15	2	1	8.5	33	6	0	6	0	0	0	0	0	ITALY	0	ITALY:  SICILY	37.9	13.1	130	216	3	0	0	563	3	320	4	0	0	0	0	216	3	0	0	563	3	320	4	0	0	0	0
4428	Tsu	1968	2	19	22	45	45.7	15	7.2	7.2	7.5	7.1	0	0	0	10	GREECE	0	GREECE:  AEGEAN SEA:  ST EUSTRATIOS	39.368	24.957	130	20	1	0	0	18	1	0.6	1	500	3	1951	4	20	1	0	0	18	1	0.6	1	500	3	1951	4
4434		1968	4	29	17	1	57.6	34	5.3	0	5.3	0	0	0	0	7	IRAN	0	"IRAN:  MAKU,SHAH BANDALU,QURTA BOLAGH,QONDEQLI"	39.2	44.3	140	38	1	0	0	100	2	1	2	1000	2	0	0	38	1	0	0	100	2	1	2	1000	2	0	0
4448	Tsu	1968	8	1	20	19	21.9	36	7.3	0	7.3	0	0	0	0	0	PHILIPPINES	0	PHILIPPINES:  LUZON:  MANILA	16.5	122.2	170	270	3	0	0	261	3	8	3	0	1	0	3	270	3	0	0	261	3	8	3	0	1	0	3
4456		1968	8	31	10	47	37.4	13	7.3	0	7.3	0	0	0	0	10	IRAN	0	IRAN:  DASHT-E-BAYAZ	34	59	140	10488	4	0	0	17000	4	35	4	12000	4	0	0	10488	4	0	0	17000	4	35	4	12000	4	0	0
4483		1969	3	29	9	15	54	35	6.2	0	6.2	6	0	0	0	9	ETHIOPIA	0	ETHIOPIA:  SARDO	11.9	41.21	10	40	1	0	0	160	3	0.32	1	0	3	0	0	40	1	0	0	160	3	0.32	1	0	3	0	0
4495		1969	9	29	20	3	32.8	33	6.3	0	6.3	0	0	0	0	0	SOUTH AFRICA	0	SOUTH AFRICA:  CAPE PROVINCE	-32.9	19.7	10	12	1	0	0	0	0	24	3	0	0	0	0	12	1	0	0	0	0	24	3	0	0	0	0
4502		1969	10	2	4	56	46.5	10	4.8	0	4.8	5.2	5.6	0	0	8	USA	CA	CALIFORNIA:  SANTA ROSA	38.467	-122.692	150	1	1	0	0	0	0	8.35	3	0	0	0	0	1	1	0	0	0	0	8.35	3	0	0	0	0
4523		1970	3	28	21	2	23.4	20	7.4	0	7.4	7	0	0	0	10	TURKEY	0	TURKEY:  GEDIZ	39.2	29.5	140	1086	4	0	0	1174	4	55.6	4	8229	4	8229	4	1086	4	0	0	1174	4	55.6	4	8229	4	5586	4
4531	Tsu	1970	5	31	20	23	27.3	43	7.9	7.9	7.8	0	0	0	0	10	PERU	0	"PERU: NORTHERN, PISCO, CHICLAYO"	-9.2	-78.8	160	66794	4	0	0	50000	4	530	4	0	3	0	3	66794	4	0	0	50000	4	530	4	0	3	0	0
4543		1970	7	30	0	52	19.5	16	6.7	0	6.7	0	0	0	0	8	IRAN	0	"IRAN:  KARNAVEH, MAREV"	37.8	55.9	140	220	3	0	0	220	3	8	3	2000	4	2000	4	176	3	0	0	483	3	8	3	2000	4	0	0
4550	Tsu	1970	10	31	17	53	7.1	8	7.3	0	7.3	7.1	0	0	0	8	PAPUA NEW GUINEA	0	PAPUA NEW GUINEA:  MADANG	-4.907	145.471	170	15	1	0	0	20	1	1.75	2	800	3	800	3	18	1	0	0	20	1	1.75	2	800	3	0	0
4551		1970	12	10	4	34	38.8	25	7.6	0	7.6	6.3	0	0	0	10	PERU	0	PERU:  N;  ECUADOR:  S	-4	-80.7	160	82	2	0	0	350	3	6	3	0	0	0	0	82	2	0	0	350	3	6	3	0	0	0	0
4556		1971	2	6	18	9	9.1	33	4.6	0	0	4.6	0	0	0	8	ITALY	0	ITALY:  TUSCANIA	42.5	11.8	130	24	1	0	0	150	3	41	4	40	1	1678	4	24	1	0	0	150	3	41	4	40	1	1678	4
4558		1971	2	9	14	0	41.8	8	6.5	0	6.5	6.2	6.4	0	0	11	USA	CA	CALIFORNIA:  SAN FERNANDO	34.412	-118.4	150	65	2	0	0	2000	4	505	4	0	0	0	0	65	2	0	0	2000	4	505	4	0	0	0	0
4572	Tsu	1971	7	9	3	3	18.7	58	7.8	7.8	7.5	6.6	0	0	0	9	CHILE	0	CHILE:  CENTRAL	-32.5	-71.2	160	83	2	0	0	447	3	236.4	4	0	3	0	0	83	2	0	0	447	3	236.4	4	0	3	0	0
4619		1972	12	23	6	29	42.5	5	6.2	0	6.2	5.6	0	0	0	0	NICARAGUA	0	NICARAGUA:  MANAGUA	12.4	-86.1	100	10000	4	0	0	20000	4	2968	4	0	0	0	0	10000	4	0	0	20000	4	2968	4	0	0	0	0
4632	Tsu	1973	3	17	8	30	51.8	33	7.5	0	7.5	5.6	0	0	0	9	PHILIPPINES	0	"PHILIPPINES:  QUEZON CITY:  CALAUG,LOPEZ,GUIAYANGAN"	13.4	122.8	170	15	1	0	0	64	2	0.45	1	0	0	0	0	15	1	0	0	64	2	0.45	1	0	0	0	0
4634		1973	4	14	8	34	0.1	33	6.5	0	6.5	5.7	0	0	0	0	COSTA RICA	0	"COSTA RICA: TILARAN, ARENAL, RIO CHIQUITO"	10.679	-84.759	100	26	1	0	0	100	2	0.2	1	0	0	0	0	26	1	0	0	100	2	0.2	1	0	0	0	0
4666	Tsu	1974	10	3	14	21	29.1	13	8.1	8.1	7.6	6.6	0	0	0	9	PERU	0	"PERU:  LIMA, CALLAO"	-12.27	-77.79	160	78	2	0	0	2414	4	10	3	0	3	0	0	78	2	0	0	2414	4	10	3	0	3	0	0
4671	Tsu	1974	12	28	12	11	43.7	22	6.2	0	6.2	6	0	0	0	7	PAKISTAN	0	"PAKISTAN:  BALAKOT, PATAN"	35.1	72.9	60	5300	4	0	0	17000	4	3.255	2	0	3	0	3	5300	4	0	0	17000	4	3.255	2	0	3	0	0
4697		1975	9	6	9	20	10.9	26	6.7	0	6.7	6.1	0	0	0	9	TURKEY	0	TURKEY:  LICE	38.474	40.723	140	2311	4	0	0	3372	4	17	3	0	0	0	0	2311	4	0	0	3372	4	0	0	0	0	0	0
4711	Tsu	1976	2	4	9	1	43.4	5	7.5	0	7.5	6.2	0	0	0	9	GUATEMALA	0	"GUATEMALA:  CHIMALTENANGO, GUATEMALA CITY"	15.324	-89.101	90	23000	4	0	0	76000	4	2147	4	0	0	0	0	23000	4	0	0	76000	4	2147	4	0	0	0	0
4720		1976	5	6	20	0	11.6	9	6.5	0	6.5	6	0	0	0	10	ITALY	0	"ITALY:  NE, BALKANS NW:   SLOVENIA: NW"	46.356	13.275	130	978	3	0	0	1700	4	3600	4	0	0	0	0	978	3	0	0	1700	4	3600	4	0	0	0	0
4731		1976	7	14	7	13	24	40	6.5	0	6.5	6.2	0	0	0	0	INDONESIA	0	INDONESIA:  BALI	-8.17	114.888	60	573	3	0	0	4755	4	195	4	0	0	0	0	573	3	0	0	4755	4	195	4	0	0	0	0
4735		1976	7	27	19	42	54.6	23	7.5	7.5	7.9	6.3	0	0	0	11	CHINA	0	CHINA:  NE:  TANGSHAN	39.57	117.98	30	242769	4	0	0	799000	4	5600	4	0	0	0	0	242769	4	0	0	799000	4	5600	4	0	0	0	0
4739	Tsu	1976	8	16	16	11	7.3	33	8	8	7.9	6.4	0	0	0	6	PHILIPPINES	0	PHILIPPINES:  MINDANAO:  S	6.292	124.09	170	1200	4	0	0	3500	4	134	4	0	0	0	0	8000	4	0	0	10000	4	134	4	0	0	0	0
4760		1977	3	4	19	21	55.6	89	7.5	7.5	0	7.2	0	0	0	0	ROMANIA	0	ROMANIA:  BUCHAREST	45.777	26.703	110	1641	4	0	0	10500	4	2000	4	0	0	0	0	1641	4	0	0	10500	4	2000	4	0	0	0	0
4764		1977	3	18	21	43	52.4	37	7.3	7.3	7	6.2	0	0	0	7	PHILIPPINES	0	PHILIPPINES:  LUZON:  MANILA	16.77	122.33	170	1	1	0	0	9	1	0.1	1	14	1	22	1	1	1	0	0	9	1	0.1	1	14	1	22	1
4784		1977	11	23	9	26	24.7	13	7.4	0	7.4	6.3	0	0	7.4	9	ARGENTINA	0	ARGENTINA:  SAN JUAN PROVINCE:  MENDOZA	-31.03	-67.77	160	70	2	0	0	300	3	80	4	0	0	0	0	70	2	0	0	300	3	80	4	0	0	0	0
4806	Tsu	1978	6	12	8	14	26.4	44	7.7	0	7.7	6.8	0	0	0	8	JAPAN	0	JAPAN:  SANRIKU	38.19	142.028	30	28	1	0	0	10000	4	865	4	0	4	0	0	28	1	0	0	10000	4	865	4	0	4	0	0
4808	Tsu	1978	6	20	20	3	21	3	6.4	0	6.4	6.1	0	0	0	8	GREECE	0	GREECE: THESSALONIKI	40.739	23.229	130	50	1	0	0	0	3	250	4	0	0	0	0	50	1	0	0	0	3	250	4	0	0	0	0
4815		1978	9	16	15	35	56.6	33	7.8	0	7.8	6.5	0	0	0	0	IRAN	0	IRAN:  TABAS	33.386	57.434	140	20000	4	0	0	0	0	50	4	0	4	0	0	20000	4	0	0	0	0	50	4	0	4	0	0
4828	Tsu	1979	3	14	11	7	16.3	49	7.6	0	7.6	6.5	0	0	0	0	MEXICO	0	MEXICO:  GUERRERO	17.813	-101.276	150	5	1	0	0	35	1	30	4	200	3	0	0	5	1	0	0	35	1	30	4	200	3	0	0
4830	Tsu	1979	4	15	6	19	44.1	10	6.9	0	6.9	6.2	6.9	0	0	9	MONTENEGRO	0	BALKANS NW:  MONTENEGRO	42.096	19.209	130	131	3	0	0	1001	4	2700	4	0	4	0	0	131	3	0	0	1001	4	2700	4	0	4	0	0
4834		1979	5	30	9	38	52.9	25	5.8	0	5.8	6.1	0	0	0	0	INDONESIA	0	INDONESIA:  SUMBAWA ISLAND	-8.207	115.949	60	22	1	0	0	0	0	4.15	2	0	0	0	0	22	1	0	0	0	0	4.15	2	0	0	0	0
4851		1979	11	2	15	53	3.5	62	6.1	0	6.1	0	0	0	0	0	INDONESIA	0	INDONESIA:  JAVA	-7.656	108.252	60	30	1	0	0	200	3	16	3	0	0	0	0	30	1	0	0	200	3	16	3	0	0	0	0
4858		1979	11	23	23	40	29.8	108	6.4	0	0	6.4	0	0	0	9	COLOMBIA	0	COLOMBIA:  MANIZALES-ARMENIA	4.805	-76.217	160	72	2	0	0	600	3	20	3	0	0	0	0	72	2	0	0	600	3	20	3	0	0	0	0
4863	Tsu	1979	12	12	7	59	3.3	33	7.7	0	7.7	6.4	0	0	0	9	COLOMBIA	0	"COLOMBIA: OFF SHORE, PACIFIC OCEAN"	1.598	-79.358	160	600	3	0	0	20000	4	8	3	10000	4	0	0	600	3	0	0	20000	4	8	3	10000	4	0	0
4868	Tsu	1980	1	1	16	42	40	10	6.7	0	6.7	6	0	0	0	8	AZORES (PORTUGAL)	0	"AZORES:   TERCEIRA, ANGRA DO HEROISMO"	38.815	-27.78	130	69	2	0	0	600	3	5	2	0	0	0	0	69	2	0	0	600	3	5	2	0	0	0	0
4882		1980	7	9	2	11	52.8	14	6.4	0	6.4	5.8	0	0	0	9	GREECE	0	GREECE:  AEGEAN SEA:  MAGNESIA	39.269	23.041	130	1	1	0	0	0	3	5	2	0	0	0	0	1	1	0	0	0	3	5	2	0	0	0	0
4888		1980	7	29	14	58	40.8	18	6.5	0	6.5	6.1	0	0	0	0	NEPAL	0	NEPAL-INDIA:   PITHORAGARH	29.598	81.092	60	200	3	0	0	0	3	245	4	0	0	0	0	200	3	0	0	0	3	245	4	0	0	0	0
4891		1980	8	18	15	7	52.6	55	5.6	0	0	5.6	0	0	0	0	ECUADOR	0	"ECUADOR:  W, GUAYAQUIL"	-1.948	-80.017	160	8	1	0	0	100	2	5	2	0	0	0	0	8	1	0	0	100	2	5	2	0	0	0	0
4894		1980	9	24	17	54	24.1	73	6	0	0	6	0	0	0	6	JAPAN	0	"JAPAN:  TOKYO, YOKOHAMA"	35.45	139.964	30	2	1	0	0	73	2	1	2	0	0	0	0	2	1	0	0	73	2	1	2	0	0	0	0
4896	Tsu	1980	10	10	12	25	23.5	10	7.7	0	7.7	6.5	0	0	0	10	ALGERIA	0	ALGERIA:  NORTHERN	36.195	1.354	15	5000	4	0	0	9000	4	5200	4	25000	4	0	0	5000	4	0	0	9000	4	5200	4	250000	4	0	0
4899		1980	10	24	14	53	35.1	72	6.4	0	6.4	6.6	0	0	0	9	MEXICO	0	"MEXICO:  S, HUAJAPAN DE LEON, OAXACA"	18.211	-98.24	150	300	3	0	0	0	3	5	2	0	3	0	0	300	3	0	0	0	3	5	2	0	3	0	0
4902		1980	11	12	6	58	11.6	71	4.9	0	0	4.9	0	0	0	0	PERU	0	PERU:  S CENTRAL	-13.347	-74.545	160	7	1	0	0	0	0	1	2	0	0	0	0	7	1	0	0	0	0	1	2	0	0	0	0
4903		1980	11	23	18	34	53.8	20	6.9	0	6.9	6	0	0	0	10	ITALY	0	"ITALY:   AVELLINO, POTENZA, CASERTA, NAPLES"	40.914	15.366	130	4689	4	0	0	7700	4	20000	4	0	0	0	0	4689	4	0	0	7700	4	20000	4	0	0	0	0
4907		1980	12	19	1	16	56	33	5.8	0	5.8	5.6	0	0	0	0	IRAN	0	"IRAN:  N CENTRAL, TEHRAN"	34.587	50.652	140	26	1	0	0	0	0	5	2	0	0	0	0	26	1	0	0	0	0	5	2	0	0	0	0
4908		1980	12	22	12	51	21	41	5.2	0	5.2	5.2	0	0	0	0	IRAN	0	"IRAN:  N CENTRAL, TEHRAN"	34.503	50.59	140	3	1	0	0	139	3	1	2	0	0	0	0	3	1	0	0	139	3	1	2	0	0	0	0
4909		1981	1	19	15	11	1	33	6.7	0	6.7	6	0	0	0	0	INDONESIA	0	INDONESIA:  NEW GUINEA:  IRIAN JAYA: JAYAWIJAYA MTS	-4.576	139.232	170	305	3	0	0	0	2	5	2	0	0	0	0	305	3	0	0	0	2	5	2	0	0	0	0
4911		1981	1	23	21	13	51.7	33	6.8	0	6.8	5.7	0	0	0	8	CHINA	0	CHINA:  SICHUAN PROVINCE	30.927	101.098	30	150	3	0	0	489	3	5	2	2992	4	0	0	150	3	0	0	489	3	5	2	2992	4	0	0
4913		1981	2	14	17	27	44.3	10	4.6	0	0	4.6	0	0	0	7	ITALY	0	ITALY:  S	41.051	14.601	130	12	1	0	0	0	0	0.5	1	0	0	0	0	12	1	0	0	0	0	0.5	1	0	0	0	0
4915	Tsu	1981	2	24	20	53	38.4	33	6.7	0	6.7	5.9	0	0	0	8	GREECE	0	GREECE:  ATHENS-EASTERN GULF OF CORINTH	38.222	22.934	130	22	1	0	0	400	3	812	4	8000	4	0	0	22	1	0	0	400	3	812	4	8000	4	0	0
4921		1981	6	11	7	24	25.2	33	6.7	0	6.7	6.1	0	0	0	0	IRAN	0	IRAN:  SE:  GOLBAFT	29.913	57.715	140	3000	4	0	0	0	3	5	2	0	0	0	0	3000	4	0	0	0	3	5	2	0	0	0	0
4922		1981	6	22	17	53	21.3	24	5.2	0	5.2	5.1	0	0	0	0	PERU	0	PERU:  CENTRAL	-13.166	-74.522	160	10	1	0	0	0	2	5	2	0	0	0	0	10	1	0	0	0	2	5	2	0	0	0	0
4923		1981	7	28	17	22	24.6	33	7.1	0	7.1	5.7	0	0	0	0	IRAN	0	"IRAN:  SE, KERMAN"	30.013	57.794	140	3000	4	0	0	1000	4	1000	4	0	0	0	0	3000	4	0	0	1000	4	1000	4	0	0	0	0
4929		1981	9	12	7	15	54.1	33	5.9	0	5.9	6.2	0	0	0	0	PAKISTAN	0	PAKISTAN: GILGIT	35.693	73.594	60	220	3	0	0	2500	4	5	2	0	0	0	0	220	3	0	0	2500	4	5	2	0	0	0	0
4931		1981	10	18	4	31	2.7	54	5.4	0	0	5.4	0	0	0	7	COLOMBIA	0	VENEZUELA-N COLOMBIA	8.117	-72.527	160	15	1	0	0	0	3	5	2	0	0	0	0	15	1	0	0	0	3	5	2	0	0	0	0
4941		1982	3	28	23	24	51.1	95	6.1	0	0	6.1	0	0	0	6	PERU	0	"PERU:  COAST, LUNAHUANA, LIMA, HUANCAYO"	-12.69	-76.065	160	3	1	0	0	0	0	5	2	0	0	0	0	3	1	0	0	0	0	5	2	0	0	0	0
4945		1982	6	19	6	21	58	82	6.2	0	0	6.2	0	0	0	7	EL SALVADOR	0	EL SALVADOR:  SAN SALVADOR; GUATEMALA	13.313	-89.339	100	43	1	0	0	0	3	5	2	0	0	0	0	43	1	0	0	0	3	5	2	0	0	0	0
4953		1982	11	16	23	41	21	21	5.5	0	5.5	5.6	0	0	0	8	MACEDONIA	0	"BALKANS NW:  ALBANIA:  BIER, BERAT, LUSHNJE"	40.883	19.59	130	1	1	0	0	12	1	5	2	0	0	0	0	1	1	0	0	12	1	5	2	0	0	0	0
4954		1982	12	13	9	12	48	5	6	0	6	6	0	0	0	8	YEMEN	0	YEMEN:  DHAMAR	14.701	44.379	60	2800	4	0	0	1500	4	2000	4	0	4	0	0	2800	4	0	0	1500	4	2000	4	0	4	0	0
4957		1982	12	16	0	40	48.7	36	6.6	0	6.6	6.2	0	0	0	0	AFGHANISTAN	0	AFGHANISTAN:  NORTHEASTERN	36.148	69.011	40	500	3	0	0	3000	4	1	2	0	0	0	0	500	3	0	0	3000	4	1	2	0	0	0	0
4959	Tsu	1982	12	25	12	28	2.8	33	5.9	0	5.9	5.5	0	0	0	0	INDONESIA	0	INDONESIA:  FLORES ISLAND:  EASTERN	-8.405	123.08	60	13	1	0	0	390	3	1.45	2	1875	4	0	0	13	1	0	0	390	3	1.45	2	1875	4	0	0
4963		1983	2	25	18	22	12.9	24	4.7	0	0	4.7	0	0	0	7	MACEDONIA	0	BALKANS NW:  MACEDONIA:  SKOPJE	41.959	21.54	130	12	1	0	0	0	0	0.5	1	0	0	0	0	12	1	0	0	0	0	0.5	1	0	0	0	0
4967		1983	3	25	11	57	49.3	33	4.9	0	4.9	5.2	0	0	0	0	IRAN	0	"IRAN:  TEHRAN, DAMAVOND, AMOI"	35.953	52.264	140	30	1	0	0	61	2	5	2	0	0	0	3	30	1	0	0	61	2	5	2	0	0	0	3
4968		1983	3	31	13	12	52.6	22	4.9	0	4.9	5.5	0	0	0	8	COLOMBIA	0	"COLOMBIA:  SW, POPAYAN"	2.461	-76.686	160	350	3	0	0	1200	4	410.9	4	0	0	0	0	350	3	0	0	1200	4	410.9	4	0	0	0	0
4972		1983	4	3	2	50	1.1	37	7.3	0	7.3	6.5	0	0	0	0	COSTA RICA	0	"COSTA RICA:  SE, PANAMA: W"	8.717	-83.123	100	6	1	0	0	0	2	1	2	0	0	0	0	6	1	0	0	0	2	1	2	0	0	0	0
4978	Tsu	1983	5	26	2	59	59.6	24	7.7	0	7.7	6.8	0	0	0	8	JAPAN	0	JAPAN:  HONSHU:  AKITA	40.462	139.102	30	4	1	0	0	324	3	800	4	0	0	0	0	104	3	0	0	324	3	800	4	0	0	0	0
4980		1983	7	3	17	14	23.1	33	6.2	0	6.2	5.9	0	0	0	9	COSTA RICA	0	COSTA RICA:  SAN JOSE	9.652	-83.688	100	2	1	0	0	60	2	5	2	0	0	0	0	2	1	0	0	60	2	5	2	0	0	0	0
4983		1983	7	22	2	41	0.8	41	5	0	5	5.6	0	0	0	6	IRAN	0	"IRAN:  NW, ZANJIN"	36.948	49.18	140	3	1	0	0	41	1	5	2	75	2	0	0	3	1	0	0	41	1	5	2	75	2	0	0
4987	Tsu	1983	8	17	12	17	56	29	6.5	0	6.5	6.2	0	0	0	8	PHILIPPINES	0	PHILIPPINES:  LUZON	18.231	120.86	170	16	1	0	0	47	1	2.227	2	0	3	0	3	16	1	0	0	471	3	2.227	2	0	3	0	0
4991	Tsu	1983	10	4	18	52	13.3	15	7.3	0	7.3	6.4	0	0	0	7	CHILE	0	CHILE:  NORTHERN:  COPOAPO-CHANARAL	-26.535	-70.563	160	5	1	0	0	12	1	1	2	40	1	0	0	5	1	0	0	12	1	1	2	40	1	0	0
5677		1983	10	28	14	6	6.5	14	7.3	0	7.3	6.2	7.2	0	0	9	USA	ID	"IDAHO:  BORAH PEAK, CHALLIS, MACKAY"	43.974	-113.916	150	2	1	0	0	2	1	12.5	3	0	0	0	0	2	1	0	0	2	1	12.5	3	0	0	0	0
4999		1983	10	30	4	12	27.1	12	6.9	0	6.9	6.1	0	0	0	0	TURKEY	0	"TURKEY:  ERZURUM, KARS, KHORASAN, PASINLER, NARMAN"	40.33	42.187	140	1342	4	0	0	1142	4	25	4	0	4	0	0	1342	4	0	0	1142	4	25	4	0	4	0	0
5002		1983	11	6	21	9	45.2	19	5.3	0	5.3	5.7	0	0	0	7	CHINA	0	"CHINA:  E, HEZE-DONGMING, SHANDONG PROVINCE"	35.206	115.213	30	34	1	0	0	2200	4	5	2	3300	4	0	0	34	1	0	0	2200	4	5	2	3300	4	0	0
5004		1983	11	8	0	49	32.1	10	5	0	0	5	0	0	0	7	BELGIUM	0	BELGIUM	50.696	5.346	120	2	1	0	0	30	1	50	4	0	3	0	0	2	1	0	0	30	1	50	4	0	3	0	0
5009		1983	12	22	1	2	2.4	26	6.4	0	6.4	5.7	0	0	0	5	PAPUA NEW GUINEA	0	"PAPUA NEW GUINEA:  ULAWUN, RABAUL"	-5.392	151.868	170	10	1	0	0	0	0	25	4	0	0	0	0	10	1	0	0	0	0	25	4	0	0	0	0
5011		1983	12	22	4	11	29.2	11	6.2	0	6.2	6.4	0	0	0	9	GUINEA	0	GUINEA:  GAOUAL-KOUMBIA	11.866	-13.529	10	443	3	200	3	1436	4	8	3	4000	4	0	0	443	3	200	3	1436	4	8	3	4000	4	0	0
5018		1983	12	30	23	52	39.9	215	7.2	0	0	7.2	0	0	0	7	AFGHANISTAN	0	"AFGHANISTAN:  HINDU KUSH:  KABUL, SAMANGAN; PAKISTAN"	36.372	70.738	40	26	1	0	0	483	3	3	2	0	0	0	0	26	1	0	0	483	3	3	2	0	0	0	0
5019	Tsu	1984	1	8	15	24	13.5	33	6.6	0	6.6	6	0	0	0	0	INDONESIA	0	INDONESIA:  SULAWESI:  W	-2.823	118.806	170	2	1	0	0	89	2	0.5	1	0	0	685	3	2	1	0	0	89	2	0.5	1	0	0	685	3
5022		1984	2	1	14	22	7.9	33	5.8	0	5.8	5.9	0	0	0	4	AFGHANISTAN	0	"AFGHANISTAN:  KHOROG, JALALABAD; PAKISTAN"	34.616	70.484	40	1	1	0	0	35	1	5	2	0	0	0	0	1	1	0	0	35	1	5	2	0	0	0	0
5027		1984	2	16	17	18	41.6	208	6.1	0	0	6.1	0	0	0	6	PAKISTAN	0	PAKISTAN-NW AFGHANISTAN:  HINDU KUSH: CHITRAL-LANDI	36.431	70.826	60	4	1	0	0	13	1	5	2	0	0	0	0	4	1	0	0	13	1	5	2	0	0	0	0
5035		1984	4	29	5	3	    	12	5.3	0	5.3	5.2	0	0	0	8	ITALY	0	ITALY:  CENTRAL:  :PERUGIA-ASSISSI-GUBBIO	43.26	12.558	130	3	1	0	0	200	3	25	4	0	0	0	0	3	1	0	0	200	3	25	4	0	0	0	0
5036		1984	5	7	17	49	41.6	10	5.8	0	5.8	5.5	0	0	0	8	ITALY	0	ITALY:  S CENTRAL:  ABRUZZO	41.765	13.898	130	3	1	0	0	100	2	5	2	0	0	0	0	3	1	0	0	100	2	5	2	0	0	0	0
5046		1984	9	13	23	48	49.9	10	6.1	0	6.1	6	0	0	0	6	JAPAN	0	JAPAN:  HONSHU:  CENTRAL: MT ONTAKE	35.789	137.488	30	29	1	0	0	0	0	43	4	0	0	0	0	29	1	0	0	0	0	43	4	0	0	0	0
5054		1985	1	26	3	6	57.8	5	6.9	0	6.9	6	0	0	0	7	ARGENTINA	0	"ARGENTINA:  WEST CENTRAL, MENDOZA, LA LIGUA"	-33.053	-68.467	160	6	1	0	0	238	3	5	2	12000	4	12000	4	6	1	0	0	238	3	5	2	12000	4	0	0
5056	Tsu	1985	3	3	22	47	9.5	40	8	8	7.8	6.7	0	0	0	8	CHILE	0	"CHILE:  CENTRAL COAST, SAN ANTONIO, VALPARAISO"	-33.132	-71.708	160	180	3	0	0	2575	4	1500	4	0	4	0	0	180	3	0	0	2575	4	1500	4	0	4	0	0
5064		1985	4	18	5	52	52.8	5	5.8	0	5.8	5.7	0	0	0	8	CHINA	0	CHINA:  YUNNAN PROVINCE	25.926	102.871	30	23	1	0	0	300	3	1	2	0	0	0	0	23	1	0	0	300	3	1	2	0	0	0	0
5068		1985	5	10	15	35	50.5	27	7.1	0	7.1	6.3	0	0	0	8	PAPUA NEW GUINEA	0	"PAPUA NEW GUINEA:  NEW BRITAIN:  BIALLA, PIONA"	-5.599	151.045	170	1	1	0	0	0	0	1	2	0	0	0	0	1	1	0	0	0	0	1	2	0	0	0	0
5070		1985	7	29	7	54	44	99	6.6	0	0	6.6	0	0	0	8	AFGHANISTAN	0	"AFGHANISTAN:  HINDU KUSH:  CHITRAL, SWAT"	36.19	70.896	40	5	1	0	0	38	1	2	2	0	0	0	0	5	1	0	0	38	1	2	2	0	0	0	0
5072		1985	8	23	12	41	56.1	7	7.5	0	7.5	6.4	0	0	0	7	CHINA	0	CHINA:  S XINJIANG:  WUQUA-SHUFU	39.431	75.224	40	71	2	0	0	162	3	5	2	0	3	0	0	71	2	0	0	162	3	5	2	0	3	0	0
5076	Tsu	1985	9	19	13	17	47.3	28	8.1	0	8.1	6.8	0	0	0	9	MEXICO	0	MEXICO:  MICHOACAN:  MEXICO CITY	18.19	-102.533	150	9500	4	0	0	30000	4	4000	4	0	4	0	0	9500	4	0	0	30000	4	4000	4	0	4	0	0
5082		1985	10	13	15	59	51.2	16	5.9	0	5.9	5.8	0	0	0	9	TAJIKISTAN	0	"TAJIKISTAN:  KAPTOLYUK, KAYRAKKUM, GAFUROV"	40.301	69.823	40	29	1	0	0	80	2	200	4	0	3	0	3	29	1	0	0	80	2	200	4	0	3	0	0
5092		1986	4	5	20	14	28.7	51	4.6	0	4.6	5.3	0	0	0	6	PERU	0	PERU:  CUZCO	-13.41	-71.785	160	16	1	0	0	170	3	22	3	2000	4	0	0	16	1	0	0	170	3	22	3	2000	4	0	0
5094		1986	5	5	3	35	38.8	10	5.9	0	5.9	5.9	0	0	0	0	TURKEY	0	"TURKEY:  DOGANSEHIR-GOLBASHI, KAPIDERE"	37.993	37.806	140	15	1	0	0	100	2	5	2	4000	4	0	0	15	1	0	0	100	2	5	2	4000	4	0	0
5099		1986	6	11	13	48	1.3	19	6.2	0	6.2	6	0	0	0	7	VENEZUELA	0	VENEZUELA	10.597	-62.928	160	2	1	0	0	45	1	1	2	0	0	0	0	2	1	0	0	45	1	1	2	0	0	0	0
5107		1986	8	30	21	28	35.4	132	6.9	0	6.9	6.4	0	0	0	8	ROMANIA	0	"ROMANIA:  BUCHAREST, KISHINEV-KAGUL"	45.547	26.316	110	2	1	0	0	558	3	730	4	0	0	55000	4	2	1	0	0	558	3	730	4	0	0	55000	4
5108		1986	9	13	17	24	31.4	11	5.8	0	5.8	6	0	0	0	10	GREECE	0	"GREECE:  KALAMI, LAKONIA, ZAKINTHOS"	37.014	22.176	130	20	1	0	0	300	3	5	2	1500	4	0	0	20	1	0	0	300	3	0	0	1500	4	0	0
5111		1986	10	10	17	49	24.1	7	5.4	0	5.4	5	0	0	0	0	EL SALVADOR	0	EL SALVADOR:  SAN SALVADOR	13.827	-89.118	100	1100	4	0	0	10000	4	1500	4	0	0	0	0	1100	4	0	0	20000	4	1500	4	0	0	0	0
5118		1986	11	30	5	19	48.2	5	4.8	0	4.8	4.9	0	0	0	0	BRAZIL	0	"BRAZIL:  JOAO CAMARA, NATAL"	-5.494	-35.769	160	1	1	0	0	0	0	5	2	1500	4	0	0	1	1	0	0	0	0	5	2	1500	4	0	0
5119		1986	12	7	14	17	9.5	21	5.6	0	5.6	5.2	0	0	0	7	BULGARIA	0	BULGARIA:  VELIKO TURNOVO-TURGOVISHTE	43.274	25.912	110	3	1	0	0	60	2	5	2	0	0	0	0	3	1	0	0	60	2	5	2	0	0	0	0
5124		1987	1	26	11	11	41.8	10	4.3	0	4.3	4.9	0	0	0	0	ALGERIA	0	"ALGERIA:  MOHAMMADIA, QUED, FODDA, TISSEMSILT"	35.964	1.374	15	1	1	0	0	7	1	1	2	629	3	0	0	1	1	0	0	7	1	1	2	629	3	0	0
5126	Tsu	1987	2	8	18	33	58.3	55	7.6	0	7.6	0	0	0	0	7	PAPUA NEW GUINEA	0	"PAPUA NEW GUINEA:  HUON PENINSULA, UMBOI ISLAND"	-6.088	147.689	170	3	1	0	0	0	0	2.625	2	0	3	0	0	3	1	0	0	0	0	2.625	2	0	3	0	0
5127		1987	3	2	1	42	34.1	19	6.6	0	6.6	5.9	0	0	0	10	NEW ZEALAND	0	"NEW ZEALAND:  NORTH ISLAND, WHAKATANI, EDGECUMBE"	-37.965	176.765	170	1	1	0	0	25	1	210	4	0	0	0	0	1	1	0	0	25	1	210	4	0	0	0	0
5130		1987	3	6	4	10	44.4	10	7.2	7.2	6.9	6.5	0	0	0	0	ECUADOR	0	"ECUADOR:  NAPO PROVINCE, QUITO, TULCAN"	0.083	-77.785	160	5000	4	0	0	0	0	1500	4	0	0	0	0	5000	4	0	0	0	0	1500	4	0	0	0	0
5134		1987	4	25	19	22	7.2	11	6.6	0	6.6	5.9	0	0	0	0	INDONESIA	0	"INDONESIA:  SUMATERA:  N, TARUTUNG-LAKE TOBA,"	2.244	98.866	60	2	1	0	0	22	1	1	2	300	3	0	0	2	1	0	0	22	1	1	2	300	3	0	0
5138		1987	8	8	15	48	56.7	70	6.9	0	6.9	6.4	0	0	0	7	CHILE	0	"CHILE:  ARICA, IQUIQUE"	-19.022	-69.991	160	5	1	0	0	112	3	1	2	1000	3	0	0	5	1	0	0	112	3	1	2	1000	3	0	0
5143		1987	10	1	14	42	20	10	5.7	0	5.7	5.8	5.9	0	0	8	USA	CA	CALIFORNIA:  WHITTIER	34.061	-118.078	150	8	1	0	0	200	3	358	4	0	0	0	0	8	1	0	0	200	3	358	4	0	0	0	0
5148		1987	11	24	1	54	14.5	5	6.2	0	6.2	5.7	0	0	0	6	USA	CA	CALIFORNIA:  SUPERSTITION HILLS	33.082	-115.775	150	2	1	0	0	0	0	3	2	0	0	0	0	2	1	0	0	0	0	3	2	0	0	0	0
5150	Tsu	1987	11	26	1	43	14	33	6.5	0	6.5	5.8	0	0	0	0	INDONESIA	0	"INDONESIA:  TIMOR:  PANTAR, MOUNT SIRUNG"	-8.247	124.155	60	125	3	0	0	108	3	5	2	237	3	0	0	125	3	0	0	108	3	5	2	237	3	0	0
5167		1988	8	20	23	9	9.5	57	6.6	0	6.6	6.4	0	0	0	8	NEPAL	0	"NEPAL-INDIA:  KATHMANDU, BIHAR"	26.755	86.616	60	1091	4	0	0	0	0	131.5	4	0	0	0	0	1091	4	0	0	0	0	131.5	4	0	0	0	0
5176		1988	11	6	13	3	19.3	18	7.3	0	7.3	6.1	0	0	0	10	CHINA	0	CHINA:  YUNNAN PROVINCE	22.789	99.611	30	738	3	0	0	3900	4	269	4	412000	4	0	0	738	3	0	0	3900	4	269	4	412000	4	0	0
5184		1988	12	7	7	41	24.2	5	6.8	0	6.8	6.2	0	0	0	10	ARMENIA	0	"ARMENIA:  LENINAKAN, SPITAK, KIROVAKAN"	40.987	44.185	40	25000	4	0	0	0	0	16200	4	0	4	0	0	25000	4	0	0	0	0	16200	4	0	4	0	0
5191		1989	3	10	21	49	45.8	30	6.1	0	6.1	6.2	0	0	0	0	MALAWI	0	"MALAWI:  SALIMA, DEDZA, MOHINJI"	-13.702	34.42	10	9	1	0	0	100	2	28	4	0	0	0	0	9	1	0	0	100	2	28	4	0	0	0	0
5192		1989	4	15	20	34	8.9	13	6.2	0	6.2	6.2	0	0	0	0	CHINA	0	CHINA:  SICHUAN PROVINCE:  BATANG	29.987	99.195	30	11	1	0	0	42	1	164	4	0	0	0	0	11	1	0	0	42	1	164	4	0	0	0	0
5197		1989	5	7	0	38	18.5	33	5.6	0	5.6	5.3	0	0	0	0	CHINA	0	"CHINA:  YUNNAN PROVINCE:  GENGMA, LANCANG, MENGLIAN"	23.553	99.526	30	1	1	0	0	91	2	54	4	5300	4	0	0	1	1	0	0	91	2	54	4	5300	4	0	0
5199		1989	5	27	20	8	37.3	31	5.8	0	5.8	5.6	0	0	0	0	IRAN	0	"IRAN:  DO GOBADAN, FARS, YASUJ"	30.167	50.921	140	114	3	0	0	0	0	5	2	0	0	0	0	114	3	0	0	0	0	5	2	0	0	0	0
5213	Tsu	1989	10	18	0	4	15.2	19	6.9	6.9	7.1	6.5	0	0	0	9	USA	CA	CALIFORNIA:  LOMA PRIETA	37.036	-121.883	150	62	2	0	0	3757	4	5600	4	0	3	0	0	62	2	0	0	3757	4	5600	4	0	3	0	0
5218		1989	11	20	3	21	7.8	33	4.7	0	4.7	5.2	0	0	0	0	CHINA	0	CHINA:  SICHUAN PROVINCE:  JIANGBEI COUNTY	29.882	106.804	30	4	1	0	0	161	3	5	2	5000	4	53000	4	4	1	0	0	161	3	5	2	5000	4	53000	4
5220		1989	12	15	18	43	45	24	7.5	7.5	7.3	6.2	0	0	0	6	PHILIPPINES	0	"PHILIPPINES:  MINDANAO:  COTABATO, DAVAO"	8.337	126.729	170	2	1	0	0	0	3	1	2	0	0	0	0	2	1	0	0	0	3	1	2	0	0	0	0
5221		1989	12	27	23	26	57	10	5.4	0	0	5.4	0	0	0	8	AUSTRALIA	0	AUSTRALIA:  NEWCASTLE	-32.967	151.619	170	12	1	0	0	100	2	1000	4	0	0	0	0	12	1	0	0	100	2	1000	4	0	0	0	0
5224		1990	3	4	19	46	19.6	10	6.1	0	6.1	5.8	0	0	0	0	PAKISTAN	0	"PAKISTAN:  KALAT, QUETTA, MASTUNG"	28.925	66.331	60	11	1	0	0	40	1	1	2	0	0	0	3	11	1	0	0	40	1	1	2	0	0	0	3
5233		1990	4	26	9	37	15	8	6.9	0	6.9	6.5	0	0	0	0	CHINA	0	CHINA:  QINGHAI PROVINCE:  GANGHE-XINGHAI	35.986	100.245	30	126	3	0	0	2049	4	58.35	4	66800	4	66800	4	126	3	0	0	2049	4	58.35	4	66800	4	0	0
5240		1990	5	30	2	34	5.8	24	6.5	0	6.5	6.1	0	0	0	6	PERU	0	PERU:  MOYABAMBA-RIOJO	-6.016	-77.229	160	200	3	0	0	8130	4	1	2	0	0	0	0	200	3	0	0	8130	4	1	2	0	0	0	0
5241		1990	5	30	10	40	6.1	89	6.7	0	0	6.7	0	0	0	6	ROMANIA	0	"ROMANIA:  BUCHAREST, BRAILA, BRASOV"	45.841	26.668	110	14	1	0	0	700	3	23.7	3	0	0	0	0	14	1	0	0	700	3	23.7	3	0	0	0	0
5248	Tsu	1990	6	20	21	0	9.9	19	7.3	7.3	7.7	6.4	0	0	0	7	IRAN	0	"IRAN:  RASHT, QAZVIN, ZANJAN,  RUDBAR, MANJIL"	36.957	49.409	140	40000	4	0	0	105000	4	7200	4	0	4	0	0	40000	4	0	0	105000	4	7200	4	0	4	0	0
5253		1990	7	16	7	26	34.6	25	7.8	0	7.8	6.5	0	0	0	9	PHILIPPINES	0	"PHILIPPINES:  BAGUIO,  CABANATUAN, DAGUPAN"	15.679	121.172	170	2412	4	0	0	3000	4	369.6	4	0	0	0	0	2412	4	0	0	3000	4	369.6	4	0	0	0	0
5264		1990	11	6	18	45	52.2	11	6.7	0	6.7	6.2	0	0	0	0	IRAN	0	"IRAN:  S, DARAB"	28.251	55.462	140	22	1	0	0	100	2	232.3	4	0	0	0	0	22	1	0	0	100	2	232.3	4	0	0	0	0
5265		1990	11	15	2	34	32.4	48	6.8	0	6.8	6	0	0	0	0	INDONESIA	0	"INDONESIA:   N SUMATERA, BLANGKEJEREN, KUTACANE"	3.908	97.457	60	1	1	0	0	32	1	2.1	2	0	0	0	0	1	1	0	0	32	1	2.1	2	0	0	0	0
5268	Tsu	1990	12	13	0	24	25.7	11	5.3	0	5.3	5.5	0	0	0	7	ITALY	0	ITALY:  SICILY:  CARLENTINI	37.3	15.438	130	19	1	0	0	200	3	500	4	0	0	0	0	19	1	0	0	200	3	500	4	0	0	0	0
5271		1990	12	22	17	27	54.8	17	5.7	0	5.7	5.3	0	0	0	8	COSTA RICA	0	"COSTA RICA:  ALAJUELA, SANTIAGO DE PURISCAL"	9.869	-84.302	100	2	1	0	0	350	3	19.5	3	0	0	0	0	2	1	0	0	350	3	19.5	3	0	0	0	0
5274		1991	1	31	23	3	33.6	142	6.4	0	0	6.4	0	0	0	7	AFGHANISTAN	0	"AFGHANISTAN:  BADAKHSTAN, BAGHLAN, LAGHMAN, NAGARHAR"	35.993	70.423	40	848	3	0	0	200	3	36	4	0	3	2000	4	848	3	0	0	200	3	36	4	0	3	2000	4
5282	Tsu	1991	4	22	21	56	51.8	10	7.6	7.6	7.4	6.3	0	0	7.6	10	COSTA RICA	0	"COSTA RICA:  LIMON, PANDORA"	9.685	-83.073	90	87	2	0	0	0	0	510	4	0	0	0	0	89	2	0	0	0	0	510	4	0	0	0	0
5286		1991	4	29	9	12	48.1	17	7	0	7	6.2	0	0	0	9	GEORGIA	0	"GEORGIA:  DZHAVA, CHIATURA, AMBROLAURI"	42.453	43.673	40	270	3	0	0	0	0	1700	4	0	4	0	0	270	3	0	0	0	0	1700	4	0	4	0	0
5295		1991	6	28	14	43	54.5	11	5.1	0	5.1	5.8	0	0	0	7	USA	CA	"CALIFORNIA:  ARCADIA, GLENDALE, LOS ANGELES"	34.262	-118.002	150	2	1	0	0	104	3	33.5	4	0	0	0	0	2	1	0	0	104	3	33.5	4	0	0	0	0
5296		1991	7	4	11	43	10.4	29	6.5	0	6.5	6.2	0	0	0	0	INDONESIA	0	"INDONESIA:  TIMOR:  KALABAHI, DILI"	-8.099	124.681	60	28	1	0	0	181	3	7.7	3	1150	4	0	0	28	1	0	0	181	3	7.7	3	1150	4	0	0
5307		1991	10	19	21	23	14.3	10	7	0	7	6.5	0	0	0	8	INDIA	0	"INDIA:  CHAMOLI, UTTARKASHI, NEW DELHI, CHANDIGARH"	30.78	78.774	60	2000	4	0	0	1800	4	60	4	7500	4	7500	4	2000	4	0	0	1800	4	60	4	7500	4	0	0
5317		1992	3	13	17	18	39.9	27	6.9	0	6.9	6.2	0	0	0	8	TURKEY	0	TURKEY:  ERZINCAN	39.71	39.605	140	653	3	0	0	2000	4	750	4	0	0	8057	4	653	3	0	0	2000	4	750	4	0	0	8057	4
5319		1992	4	13	1	20	0.8	21	5.2	0	5.2	5.5	5.9	0	0	8	NETHERLANDS	0	"THE NETHERLANDS: ROERMOND; GERMANY: BONN, HEINSBERG"	51.153	5.798	120	1	1	0	0	45	1	100	4	0	0	0	0	1	1	0	0	45	1	100	4	0	0	0	0
5323		1992	5	15	8	8	2.9	50	6.2	0	6.2	5.7	0	0	0	7	KYRGYZSTAN	0	KYRGYZSTAN:  OSH; UZBEKISTAN:  ANDIZHAN	41.019	72.429	40	4	1	0	0	0	0	31	4	5500	4	4000	4	4	1	0	0	0	0	31	4	5500	4	4000	4
5328		1992	6	28	11	57	34.1	1	7.6	0	7.6	6.2	0	0	0	9	USA	CA	"CALIFORNIA: LANDERS, YUCCA  VALLEY"	34.201	-116.436	150	3	1	0	0	400	3	92	4	0	0	0	0	3	1	0	0	400	3	92	4	0	0	0	0
5332		1992	8	19	2	4	37.4	27	7.5	0	7.5	6.6	0	0	0	9	KYRGYZSTAN	0	KYRGYZSTAN:  TOLUK	42.142	73.575	40	75	2	0	0	0	0	130	4	8200	4	0	0	75	2	0	0	0	0	130	4	8200	4	0	0
5339		1992	10	12	13	9	55.5	22	5.3	0	5.3	5.9	0	0	0	0	EGYPT	0	EGYPT:  CAIRO	29.778	31.144	15	545	3	0	0	6512	4	1200	4	9350	4	9350	4	545	3	0	0	6512	4	1200	4	9350	4	0	0
5343	Tsu	1992	12	12	5	29	26.3	28	7.8	7.8	7.5	6.5	0	0	0	0	INDONESIA	0	"INDONESIA:  FLORES REGION, MAUMERE, BABI"	-8.48	121.896	60	1000	4	0	0	500	3	100	4	31785	4	0	0	2500	4	0	0	2103	4	100	4	31785	4	0	0
5344		1993	1	15	11	6	5.9	102	7.6	7.6	7.1	6.9	0	0	0	6	JAPAN	0	"JAPAN:  HOKKADIO, KUSHIRO, HACHINOHE, HONSHU"	43.3	143.691	30	2	1	0	0	0	0	358	4	0	0	0	0	2	1	0	0	0	0	358	4	0	0	0	0
5357	Tsu	1993	7	12	13	17	11.9	17	7.7	7.7	7.6	6.6	0	0	0	8	JAPAN	0	JAPAN:  HOKKAIDO; RUSSIA:  SOUTHEAST; SOUTH KOREA	42.851	139.197	30	23	3	0	0	233	3	1207	4	0	3	0	0	231	3	0	0	233	3	1207	4	2374	4	0	0
5364		1993	9	29	22	25	48.6	7	6.2	6.2	6.2	6.3	0	0	0	8	INDIA	0	"INDIA:  LATUR-OSMANABAD, KILLARI"	18.066	76.451	60	11000	4	0	0	30000	4	300	4	0	4	0	4	11000	4	0	0	30000	4	300	4	0	4	0	0
5366		1993	10	13	2	6	0.3	25	6.9	6.9	7	6.4	0	0	0	0	PAPUA NEW GUINEA	0	PAPUA NEW GUINEA:  EASTERN:  UPPER MARKHAM VALLEY	-5.889	146.02	170	60	2	0	0	200	3	5	2	0	0	0	0	60	2	0	0	200	3	5	2	0	0	0	0
5372	Tsu	1994	1	17	12	30	55.3	18	6.7	6.7	6.8	6.4	0	0	0	9	USA	CA	CALIFORNIA:  NORTHRIDGE	34.213	-118.537	150	60	2	0	0	7000	4	40000	4	40000	4	0	0	60	2	0	0	7000	4	40000	4	40000	4	0	0
5377		1994	2	5	23	34	9.9	14	6.2	6.2	6	5.8	0	0	0	0	UGANDA	0	"UGANDA:  FORT PORTAL, KASESE; ZAMBIA"	0.593	30.037	10	7	1	0	0	0	2	70	4	0	0	0	0	7	1	0	0	0	2	70	4	0	0	0	0
5379		1994	2	15	17	7	43.8	23	6.9	6.9	7	5.9	0	0	0	0	INDONESIA	0	"INDONESIA:  SOUTHERN SUMATERA, LIWA, LAMPUNG"	-4.967	104.302	60	207	3	0	0	2000	4	170.476	4	6000	4	0	0	207	3	0	0	2000	4	170.476	4	6000	4	0	0
5380		1994	2	23	8	2	4.7	6	6.1	6.1	6.1	6.1	0	0	0	0	IRAN	0	IRAN:  SISTAN	30.853	60.596	140	6	1	0	0	0	3	1.4	2	0	0	0	0	6	1	0	0	0	3	1.4	2	0	0	0	0
5387		1994	6	6	20	47	40.5	12	6.8	6.8	6.6	6.4	0	0	0	0	COLOMBIA	0	"COLOMBIA:  CAUCA, HUILA"	2.917	-76.057	160	650	3	0	0	0	0	2.4	2	200	3	0	0	650	3	0	0	0	0	2.4	2	200	3	0	0
5394	Tsu	1994	11	14	19	15	30.6	32	7.1	7.1	7.1	6.1	0	0	0	0	PHILIPPINES	0	PHILIPPINES:  MINDORO	13.525	121.067	170	81	2	0	0	225	3	3.7	2	797	3	3288	4	81	2	0	0	225	3	3.7	2	797	3	3288	4
5397	Tsu	1994	12	28	12	19	23	27	7.8	7.8	7.5	6.4	0	0	0	9	JAPAN	0	JAPAN:  HONSHU	40.525	143.419	30	3	1	0	0	200	3	170.4	4	0	0	0	0	3	1	0	0	200	3	170.4	4	0	0	0	0
5399	Tsu	1995	1	16	20	46	52.1	22	6.9	6.9	6.8	6.3	0	0	0	11	JAPAN	0	"JAPAN:  SW HONSHU:  KOBE, AWAJI-SHIMA, NISHINOMIYA"	34.583	135.018	30	5502	4	0	0	36896	4	100000	4	200000	4	0	0	5502	4	0	0	36896	4	100000	4	200000	4	0	0
5404		1995	2	8	18	40	25.3	74	6.4	6.4	0	6.3	0	0	0	0	COLOMBIA	0	"COLOMBIA:  CALI, PEREIRA, ARMENIA, CALARCA"	4.104	-76.622	160	45	1	0	0	400	3	50	4	2000	4	0	0	45	1	1	0	400	3	50	4	2000	4	0	0
5405		1995	2	23	21	3	1.3	10	5.9	5.9	5.7	5.8	0	0	0	7	CYPRUS	0	"CYPRUS:  PAPHOS, NICOSIA, ARODHES, PERISTERONA"	35.046	32.279	130	2	1	0	0	5	1	4.34	2	70	2	570	3	2	1	0	0	5	1	4.34	2	70	2	570	3
5412	Tsu	1995	5	27	13	3	52.6	11	7.1	0	7.1	6.7	7.5	0	0	9	RUSSIA	0	"RUSSIA:  SAKHALIN IS:  NEFTEGORSK, OKHA, MOSKALVO"	52.629	142.827	50	1989	4	0	0	750	3	300	4	0	0	0	0	1989	4	0	0	750	3	300	4	0	0	0	0
5413	Tsu	1995	6	15	0	15	48.7	14	6.5	6.5	6.5	6.1	0	0	0	7	GREECE	0	"GREECE:  AIYION, ERATINI"	38.401	22.283	130	26	1	0	0	60	2	660	4	0	0	0	0	26	1	0	0	60	2	660	4	0	0	0	0
5414		1995	7	11	21	46	39.7	13	6.8	6.8	7.1	6.1	0	0	0	0	CHINA	0	"CHINA: YUNNAN PROVINCE: LANCANG, MENGLIAN; THAILAND"	21.966	99.196	30	11	1	0	0	136	3	36.1	4	100000	4	100000	4	11	1	0	0	136	3	36.1	4	100000	4	0	0
5416	Tsu	1995	7	30	5	11	23.6	46	8	8	7.3	6.6	0	0	0	7	CHILE	0	"CHILE:  ANTOFAGASTA, CALAMA, MEJILLONES"	-23.34	-70.294	160	3	1	0	0	58	2	1.66	2	115	3	0	0	3	1	0	0	0	0	1.791	2	115	3	0	0
5419		1995	10	1	15	57	16.2	33	6.4	6.4	6.2	5.8	0	0	0	8	TURKEY	0	"TURKEY:   DINAR, EVCILER"	38.063	30.134	140	95	2	0	0	348	3	205.8	4	5100	4	0	0	95	2	0	0	348	3	205.8	4	5100	4	0	0
5424		1995	10	23	22	46	50.8	10	6.2	6.2	6.4	5.8	0	0	0	0	CHINA	0	CHINA:  YUNNAN PROVINCE:  WUDING	26.003	102.227	30	81	2	0	0	800	3	80	4	200	3	200	3	81	2	0	0	800	3	80	4	200	3	0	0
5430		1996	2	3	11	14	20.1	11	6.6	6.6	6.5	6.4	0	0	0	9	CHINA	0	CHINA:  YUNNAN PROVINCE:  LIJIANG	27.291	100.276	30	322	3	0	0	17057	4	506	4	959000	4	959000	4	322	3	0	0	17057	4	506	4	959000	4	0	0
5433	Tsu	1996	2	17	5	59	30.5	33	8.2	8.2	8.1	6.5	0	0	0	0	INDONESIA	0	"INDONESIA:  NEW GUINEA:  IRIAN JAYA:  BIAK, SUPIORI"	-0.891	136.952	170	54	2	0	0	423	3	4.2	2	5043	4	0	0	164	3	0	0	423	3	4.2	2	5043	4	0	0
5436		1996	3	19	15	0	26	28	6.3	6.3	6	5.7	0	0	0	0	CHINA	0	"CHINA:  S. XINJIANG:   ARTUX, JIASHI, BACHU, KASHI"	39.993	76.696	40	24	1	0	0	128	3	24	3	15314	4	0	0	24	1	0	0	128	3	24	3	15314	4	0	0
5447		1997	2	4	10	37	47.1	10	6.5	6.5	6.8	5.9	0	0	0	8	IRAN	0	"IRAN:  BOJNURD, SHIRVAN, ESFARAYEN"	37.661	57.291	140	88	2	0	0	1948	4	30	4	5500	4	11000	4	88	2	0	0	1948	4	30	4	5500	4	11000	4
5461		1997	5	10	7	57	29.7	10	7.2	7.2	7.3	6.4	0	0	0	10	IRAN	0	"IRAN:  BIRJAND, GHAEN"	33.825	59.809	140	1728	4	0	0	2300	4	100	4	10533	4	5474	4	1728	4	0	0	2300	4	100	4	10533	4	5474	4
5465		1997	5	21	22	51	28.7	36	5.8	5.8	5.6	6	0	0	0	8	INDIA	0	INDIA:  SOUTHERN:  JABALPUR	23.083	80.041	60	56	2	0	0	1000	4	143	4	8546	4	8546	4	56	2	0	0	1000	4	143	4	8546	4	52690	4
5467	Tsu	1997	7	9	19	24	13.1	20	7	7	6.8	6.2	0	0	0	5	VENEZUELA	0	VENEZUELA:  CARIACO-CUMANA	10.598	-63.486	90	81	2	0	0	522	3	81	4	0	0	0	0	81	2	0	0	522	3	81	4	0	0	0	0
5473		1997	9	26	9	40	26.3	10	6	6	6	5.7	0	0	0	10	ITALY	0	"ITALY:  CENTRAL:  MARCHE, UMBRIA"	43.084	12.812	130	14	1	0	0	100	2	4524.9	4	80000	4	0	0	14	1	0	0	100	2	4524.9	4	80000	4	0	0
5474		1997	9	28	1	38	28.6	33	5.9	5.9	5.5	5.6	0	0	0	0	INDONESIA	0	"INDONESIA:  SULAWESI, PAREPARE"	-3.776	119.727	170	20	1	0	0	300	3	1.1	2	650	3	0	0	20	1	0	0	300	3	1.1	2	650	3	0	0
5475		1997	10	15	1	3	33.4	58	7.1	7.1	6.8	6.8	0	0	0	0	CHILE	0	"CHILE:  PUEBLO NUEVO, COQUIMBO, LA CHIMBA"	-30.933	-71.22	160	8	1	0	0	300	3	48	4	5000	4	15700	4	8	1	0	0	300	3	48	4	5000	4	15700	4
5481		1998	1	10	3	50	41.5	30	5.7	5.7	5.7	5.8	0	0	0	8	CHINA	0	"CHINA:  NORTHEASTERN: SHANGYI-ZHANGBEI, HEBEI"	41.083	114.5	30	70	2	0	0	11500	4	285.5	4	70000	4	0	0	70	2	0	0	11500	4	285.5	4	70000	4	0	0
5495		1998	5	30	6	22	28.9	33	6.6	6.6	6.9	5.9	0	0	0	0	AFGHANISTAN	0	"AFGHANISTAN:  BADAKHSHAN, TAKHAR"	37.106	70.11	40	4700	4	0	0	0	4	10	3	0	4	0	0	4700	4	0	0	0	4	10	3	0	4	0	0
5497		1998	6	27	13	55	52	33	6.3	6.3	6.2	5.8	0	0	0	8	TURKEY	0	"TURKEY:  ADANA, CEYHAN"	36.878	35.307	140	145	3	0	0	1500	4	550	4	1700	4	0	0	145	3	0	0	1500	4	550	4	1700	4	0	0
5498		1998	7	9	5	19	7.3	10	6.2	6.2	6	5.7	0	0	0	0	AZORES (PORTUGAL)	0	"AZORES:  FAIAL, PICO, TERCEIRA"	38.65	-28.626	130	10	1	0	0	100	2	72	4	0	0	0	0	10	1	0	0	100	2	72	4	0	0	0	0
5509		1998	11	19	11	38	14.8	33	5.6	5.6	5.6	5.2	0	0	0	0	CHINA	0	"CHINA:  SICHUAN PROVINCE: HUAPING, LIJIANG, NINGLAG"	27.308	101.029	30	5	1	0	0	1543	4	70	4	12000	4	12000	4	5	1	0	0	1543	4	70	4	12000	4	0	0
5510	Tsu	1998	11	29	14	10	31.9	33	7.7	7.7	7.7	6.5	0	0	0	7	INDONESIA	0	"INDONESIA:  MANGOLE, MANADO, TALIABU"	-2.071	124.891	170	41	1	0	0	107	3	200	4	1000	3	0	0	41	1	0	0	107	3	200	4	1000	3	0	0
5512		1999	1	25	18	19	16.8	17	6.2	6.2	5.7	5.9	0	0	0	0	COLOMBIA	0	"COLOMBIA:  ARMENIA, CALARCA, PEREIRA, CALDAS, HUILA"	4.461	-75.724	160	1185	4	700	3	4750	4	1857.366	4	0	4	0	0	1185	4	700	3	4750	4	1857.366	4	0	4	0	0
5519		1999	3	28	19	5	11	15	6.6	6.6	6.6	6.4	0	0	0	8	INDIA	0	"INDIA:  CHAMOLI, RUDRAPRAYAG, TEHRI GARHWAL"	30.512	79.403	60	100	2	0	0	394	3	70	4	21100	4	21100	4	100	2	0	0	394	3	0	4	21100	4	0	0
5522		1999	6	4	9	12	50	33	5.4	5.4	5	5.4	0	0	0	5	AZERBAIJAN	0	"AZERBAIJAN:  AGDAS, UCAR, AGALI"	40.802	47.448	40	1	1	0	0	18	1	5	2	0	0	50	1	1	1	0	0	18	1	5	2	0	0	50	1
5523		1999	6	15	20	42	5.9	70	7	7	6.5	6.4	0	0	0	0	MEXICO	0	"MEXICO:  PUEBLA, VERACRUZ, OAXACA, MORELOS, GUERRERO"	18.386	-97.436	150	20	1	0	0	200	3	226.8	4	0	0	2000	4	20	1	0	0	200	3	226.8	4	0	0	2000	4
5527	Tsu	1999	8	17	0	1	39.1	13	7.6	7.6	7.8	6.3	0	0	0	10	TURKEY	0	"TURKEY:  ISTANBUL, KOCAELI, SAKARYA"	40.76	29.97	140	17118	4	0	0	50000	4	20000	4	0	0	73342	4	17118	4	0	0	50000	4	20000	4	0	0	73342	4
5531		1999	9	7	11	56	49.3	10	6	6	5.8	5.6	0	0	0	9	GREECE	0	GREECE:  ATHENS	38.119	23.605	130	143	3	0	0	1600	4	4200	4	53000	4	0	0	143	3	0	0	1600	4	4200	4	53000	4	0	0
5535		1999	9	20	17	47	18.4	33	7.7	7.7	7.7	6.5	0	0	0	10	TAIWAN	0	"TAIWAN:  NANTOU, TAICHUNG, TAIZHONG"	23.772	120.982	30	2297	4	0	0	8700	4	14000	4	8200	0	82000	4	2297	4	0	0	8700	4	14000	4	0	0	82000	4
5537		1999	9	30	16	31	15.6	61	7.5	7.5	7.5	6.5	0	0	0	8	MEXICO	0	MEXICO:  OAXACA	16.059	-96.931	150	35	1	0	0	215	3	164.8	4	0	0	2000	4	35	1	0	0	215	3	164.8	4	0	0	2000	4
5539		1999	10	22	2	18	58.5	33	5.9	5.9	5.6	5.7	0	0	0	6	TAIWAN	0	TAIWAN:  CHIA-I	23.445	120.506	30	1	1	0	0	254	3	0.786	1	15	1	0	0	1	1	0	0	254	3	0.786	1	15	1	0	0
5543		1999	11	12	16	57	19.5	10	7.2	7.2	7.5	6.3	0	0	0	9	TURKEY	0	"TURKEY:  BOLU-DUZCE-KAYNASLI, ADAPAZARI, ZONGULDAK"	40.758	31.161	140	894	3	0	0	4948	4	1000	4	0	0	0	0	894	3	0	0	4948	4	1000	4	0	0	0	0
5548		1999	12	11	18	3	36.4	33	7.3	7.3	7.1	6.5	0	0	0	7	PHILIPPINES	0	"PHILIPPINES:  S LUZON:  MANILA, SANTA CRUZ"	15.766	119.74	170	5	1	0	0	40	1	1.794	2	0	0	0	0	5	1	0	0	40	1	1.794	2	0	0	0	0
5549		1999	12	21	14	14	57.6	56	6.5	6.5	6.3	6.2	0	0	0	0	INDONESIA	0	"INDONESIA:  PANDEGLANG, W JAWA, SE SUMATERA"	-6.845	105.555	60	5	1	0	0	220	3	3.9	2	0	0	2800	4	5	1	0	0	220	3	3.9	2	0	0	2800	4
5550		1999	12	22	17	36	56.2	10	5.6	5.6	5.5	5.4	0	0	0	7	ALGERIA	0	ALGERIA:  NORTHERN:  AIN TEMOUCHENT	35.321	-1.281	15	24	1	0	0	175	3	60.929	4	0	3	0	3	24	1	0	0	175	3	60.929	4	3000	4	0	0
5553		2000	1	14	23	37	7.8	33	5.9	5.9	5.9	5.4	5.5	0	0	0	CHINA	0	CHINA:  YUNNAN PROVINCE:  YAOAN COUNTY	25.607	101.063	30	5	1	0	0	2528	4	73.5	4	41000	4	0	0	7	1	0	0	2528	4	73.5	4	41000	4	0	0
5557	Tsu	2000	5	4	4	21	16.2	26	7.6	7.6	7.5	6.7	0	0	0	0	INDONESIA	0	"INDONESIA:  SULAWESI:  LUWUK, BANGGAI, PELENG,"	-1.105	123.573	170	46	1	0	0	264	3	30	4	10000	4	0	0	46	1	0	0	264	3	30	4	10000	4	0	0
5560		2000	6	4	16	28	26.1	33	7.9	7.9	8	6.8	0	0	0	6	INDONESIA	0	"INDONESIA:  SUMATRA:  BENGKULU, ENGGANO"	-4.721	102.087	60	103	3	0	0	2174	4	6	3	0	0	0	0	103	3	0	0	2174	4	6	3	0	0	0	0
5575		2000	8	21	13	25	44.5	33	4.2	0	4.2	4.9	0	0	0	0	CHINA	0	CHINA:  YUNNAN PROVINCE:  WUDING	25.826	102.194	30	1	1	0	0	406	3	43	4	0	0	0	0	1	1	0	0	406	3	43	4	0	0	0	0
5587	Tsu	2001	1	13	17	33	32.3	60	7.7	7.7	7.8	6.4	0	0	0	8	EL SALVADOR	0	EL SALVADOR:  DAMAGE & INJURIES IN EVERY DEPT.	13.049	-88.66	100	844	3	0	0	4723	4	753	4	108226	4	169632	4	844	3	0	0	4723	4	753	4	108226	4	169632	4
5589		2001	1	26	3	16	40.5	16	7.7	7.7	8	6.9	0	0	0	10	INDIA	0	"INDIA:  GUJARAT:  BHUJ, AHMADABAD, RAJOKOT; PAKISTAN"	23.419	70.232	60	20005	4	0	0	166836	4	2623	4	339000	4	339000	4	20005	4	0	0	166836	4	2623	4	339000	4	0	0
5592		2001	2	13	14	22	5.8	10	6.6	6.6	6.5	5.5	0	0	0	6	EL SALVADOR	0	EL SALVADOR: SAN JUAN TEPEZONTES-SAN VICENTE-COJUTEP	13.671	-88.938	100	315	3	0	0	3399	4	348.5	4	41302	4	15706	4	315	3	0	0	3399	4	348.5	4	41302	4	15706	4
5595		2001	2	28	18	54	32.8	52	6.8	6.8	6.6	6.5	0	0	0	8	USA	WA	"WASHINGTON:  OLYMPIA, SEATTLE, TACOMA"	47.149	-122.727	150	1	1	0	0	400	3	2000	4	0	0	0	0	1	1	0	0	400	3	2000	4	0	0	0	0
5596		2001	3	24	6	27	53.5	50	6.8	6.8	6.5	6.4	0	0	0	9	JAPAN	0	"JAPAN:  HIROSHIMA, OKAYAMA, HONSHU, KAGAMA"	34.083	132.526	30	2	1	0	0	161	3	500	4	0	0	3700	4	2	1	0	0	161	3	500	4	0	0	3700	4
5598		2001	5	23	21	10	43.9	33	5.5	5.5	5.3	5.1	0	0	0	0	CHINA	0	CHINA:  YUNNAN:  NINGLANG; SICHUAN:  YANYUAN	27.689	101.003	30	2	1	0	0	605	3	36	4	0	0	0	0	2	1	0	0	605	3	36	4	0	0	0	0
5625	Tsu	2002	3	5	21	16	9.1	31	7.5	7.5	7.2	6.3	0	0	0	0	PHILIPPINES	0	PHILIPPINES:  MINDANAO	6.033	124.249	170	15	1	0	0	100	2	1.714	2	0	0	800	3	15	1	0	0	100	2	1.714	2	0	0	800	3
5639		2002	6	22	2	58	21.3	10	6.5	6.5	6.4	6.2	0	0	0	8	IRAN	0	IRAN:  AB GARM-ABHAR-AVAJ-SHIRIN SU	35.626	49.047	140	261	3	0	0	1300	4	300	4	0	4	0	4	261	3	0	0	1300	4	300	4	4	4	0	0
5648		2002	9	6	1	21	28.6	5	6	6	5.5	5.8	0	0	0	0	ITALY	0	ITALY:  SICILY:  PALERMO	38.381	13.701	130	2	1	0	0	20	1	500	4	0	0	0	2	2	1	0	0	20	1	500	4	0	0	0	2
5660		2002	10	31	10	32	58.7	10	5.7	5.7	5.6	5.3	0	0	0	0	ITALY	0	"ITALY:  SAN GUILIANO DI PUGLIA, CAMPOBASSO"	41.789	14.872	130	29	1	0	0	135	3	796	4	0	0	0	4	29	1	0	0	135	3	796	4	0	0	0	4
5694	Tsu	2003	5	21	18	44	20.1	12	6.8	6.8	6.9	6.5	0	0	0	10	ALGERIA	0	"ALGERIA:  ALGIERS, BOUMERDES, REGHIA, THENIA"	36.964	3.634	15	2266	4	0	0	10261	4	5000	4	43000	4	43000	4	2266	4	0	0	10261	4	5000	4	43000	4	0	0
5707		2003	7	21	15	16	31.9	10	5.9	5.9	6	5.4	0	0	0	0	CHINA	0	CHINA:  YUNNAN PROVINCE	25.975	101.29	30	16	1	0	0	584	3	75	4	264878	4	264878	4	16	1	0	0	584	3	75	4	264878	4	0	0
5725		2003	9	27	11	33	25	16	7.3	7.3	7.5	6.5	0	0	0	10	RUSSIA	0	"RUSSIA:  KOSH-AGACH, UST'-ULAGAN, ONGUDAI, SHEBALINO"	50.038	87.813	40	3	1	0	0	5	1	10.6	3	300	3	0	0	3	1	0	0	5	1	10.6	3	300	3	0	0
5732		2003	10	25	12	41	35.2	10	5.8	5.8	5.7	5.8	0	0	0	0	CHINA	0	"CHINA:  GANSU PROVINCE:  MINLE, SHANDAN"	38.4	100.951	30	9	1	0	0	43	1	40	4	10000	4	0	0	9	1	0	0	43	1	40	4	10000	4	0	0
5749		2003	12	22	19	15	56	8	6.6	6.6	6.4	6.1	0	0	0	8	USA	CA	"CALIFORNIA:  PASO ROBLES,TEMPLETON,ATASCADERO"	35.706	-121.102	150	2	1	0	0	40	1	300	4	40	1	0	0	2	1	0	0	40	1	300	4	0	0	0	0
5751		2003	12	26	1	56	52.4	10	6.6	6.6	6.8	6	0	0	0	9	IRAN	0	"IRAN:  SOUTHEASTERN:  BAM, BARAVAT"	28.995	58.311	140	31000	4	0	0	30000	4	32.7	4	0	4	0	4	31000	4	0	0	30000	4	32.7	4	0	4	0	0
5752		2004	1	1	20	59	31.9	45	5.8	5.8	5.4	5.5	0	0	0	6	INDONESIA	0	"INDONESIA:  BALI, LOMBOK"	-8.31	115.788	60	1	1	0	0	29	1	12	3	6000	4	0	0	1	1	0	0	29	1	12	3	6000	4	0	0
5758		2004	2	5	21	5	2.8	17	7	7	7.1	6.1	0	0	0	0	INDONESIA	0	INDONESIA:  NABIRE	-3.615	135.538	170	37	1	0	0	682	3	1	2	2678	4	0	0	37	1	0	0	682	3	1	2	2678	4	0	0
5765		2004	2	24	2	27	46.2	0	6.4	6.4	6.4	6.2	0	0	0	9	MOROCCO	0	"MOROCCO:  AL HOCEIMA, IMZOURENE, BENI ABDALLAH"	35.142	-3.997	15	628	3	0	0	926	3	400	4	2539	4	0	0	628	3	0	0	926	3	400	4	2539	4	0	0
5783		2004	5	28	12	38	44.4	17	6.3	6.3	6.3	6.2	0	0	0	0	IRAN	0	"IRAN:  MAZANDARAN, QAZVIN, TEHRAN"	36.29	51.61	140	35	1	0	0	400	3	165	4	0	0	0	0	35	1	0	0	400	3	165	4	0	0	0	3
5796		2004	8	10	10	26	14.7	6	5.4	5.4	5.1	5.1	0	0	0	0	CHINA	0	CHINA:  YUNNAN PROVINCE:  LUDIAN	27.266	103.873	30	4	1	0	0	600	3	50	4	18556	4	65601	4	4	1	0	0	600	3	50	4	18556	0	65601	4
5807		2004	10	23	8	56	0.8	16	6.6	6.6	6.3	6.4	0	0	0	0	JAPAN	0	JAPAN:  HONSHU:  NIIGATA PREFECTURE	37.226	138.779	30	40	1	0	0	3183	4	28000	4	6000	4	0	0	40	1	0	0	3183	4	28000	4	6000	4	0	0
5817		2004	11	26	2	25	3.3	10	7.1	7.1	7.2	6.2	0	0	0	8	INDONESIA	0	INDONESIA:  NABIRE	-3.609	135.404	170	32	1	0	0	130	3	55	4	328	3	0	0	32	1	0	0	130	3	55	4	328	3	0	0
5823	Tsu	2004	12	26	0	58	53.4	30	9.1	9.1	8.8	7	0	0	0	0	INDONESIA	0	INDONESIA:  SUMATRA:  ACEH:  OFF WEST COAST	3.316	95.854	60	1001	4	0	0	0	3	10000	4	0	3	0	3	227899	4	0	0	0	3	10000	4	0	3	0	0
6778		2005	10	8	3	50	40.8	26	7.6	7.6	7.7	6.9	0	0	0	8	PAKISTAN	0	"PAKISTAN:  MUZAFFARABAD, URI, ANANTNAG, BARAMULA"	34.539	73.588	60	76213	4	0	0	146599	4	6680	4	0	3	0	3	76213	4	0	0	146599	4	6680	4	0	3	0	0
7245		2006	5	26	22	53	58.9	13	6.3	6.3	6.2	6	0	0	0	0	INDONESIA	0	"INDONESIA:   JAVA:  BANTUL, YOGYAKARTA"	-7.961	110.446	60	5749	4	0	0	38568	4	3100	4	127000	4	127000	4	5749	4	0	0	38568	4	3100	4	127000	4	0	0
7525		2007	6	2	21	34	57.7	5	6.1	6.1	6.3	5.7	0	0	0	0	CHINA	0	CHINA:  YUNNAN PROVINCE:  NING'ER	23.028	101.052	30	3	1	0	0	329	3	310	4	0	0	0	0	3	1	0	0	329	3	310	4	0	0	0	0
7521	Tsu	2007	7	16	1	13	22	10	6.6	6.6	0	0	0	0	0	0	JAPAN	0	JAPAN:  HONSHU:  W COAST	37.57	138.478	30	9	1	0	0	1088	4	12500	4	0	0	875	3	9	1	0	0	1088	4	12500	4	0	0	875	3
7843	Tsu	2008	5	12	6	28	1.5	19	7.9	7.9	8.1	6.9	0	0	0	9	CHINA	0	CHINA:  SICHUAN PROVINCE	31.002	103.322	30	87652	4	0	0	374171	4	86000	4	5360000	4	5360000	4	87652	4	0	0	374171	4	86000	4	5360000	4	21000000	4
8264		2009	4	6	1	32	39	9	6.3	6.3	6.2	5.6	0	0	0	0	ITALY	0	ITALY:  L'AQUILA	42.334	13.334	130	309	3	0	0	1500	4	2500	4	15000	4	0	0	309	3	0	0	1500	4	2500	4	15000	4	0	0
8409	Tsu	2009	9	30	10	16	9.2	81	7.5	7.5	0	7.1	0	0	0	0	INDONESIA	0	INDONESIA:  SUMATRA:  PADANG	-0.72	99.867	60	1117	4	0	0	1214	4	2200	4	0	3	181665	4	1117	4	0	0	1214	4	2200	4	0	3	181665	4
8552		2009	10	1	1	52	27.3	10	6.6	6.6	6.7	5.9	0	0	0	0	INDONESIA	0	INDONESIA:  SUMATRA:  SOUTHERN:  KERINCI	-2.515	101.501	60	3	1	0	0	0	0	10	3	0	3	0	3	3	1	0	0	0	0	10	3	0	3	0	0
8451		2009	11	8	19	41	43.3	18	6.6	6.6	6.5	6.3	0	0	0	0	INDONESIA	0	INDONESIA:  SUMABAWA:  BIMA	-8.207	118.631	60	2	1	0	0	200	3	2.43	2	0	0	0	0	2	1	0	0	200	3	2.43	2	0	0	0	2
8732	Tsu	2010	1	12	21	53	10	13	7	7	7.3	6.8	0	0	0	0	HAITI	0	HAITI:  PORT-AU-PRINCE	18.457	-72.533	90	316000	4	0	0	30000	4	8000	4	97294	4	188383	4	316000	4	0	0	300000	4	8000	4	97294	4	188383	4
8872	Tsu	2010	2	27	6	34	11.5	23	8.8	8.8	8.5	7.2	0	0	0	9	CHILE	0	"CHILE:  MAULE, CONCEPCION, TALCAHUANO"	-36.122	-72.898	160	402	3	0	0	12000	4	30000	4	0	0	500000	4	558	3	0	0	12000	4	30000	4	0	0	500000	4
8932		2010	4	4	22	40	43.1	4	7.2	7.2	7.3	6.4	0	0	0	0	MEXICO	0	MEXICO:  BAJA CALIFORNIA	32.297	-115.278	150	2	1	0	0	233	3	1150	4	0	0	0	3	2	1	0	0	233	3	1150	4	0	0	0	3
8972		2010	4	13	23	49	38.3	17	6.9	6.9	7	6.5	0	0	0	0	CHINA	0	CHINA:  QINGHAI PROVINCE:  YUSHU	33.165	96.548	30	2220	4	70	2	12135	4	500	4	15000	4	0	0	2220	4	70	2	12135	4	500	4	15000	4	0	0
9779	Tsu	2011	2	21	23	51	42.3	6	6.1	6.1	6.3	6.1	6.3	0	0	0	NEW ZEALAND	0	"NEW ZEALAND:  CHRISTCHURCH, LYTTELTON"	-43.583	172.68	170	181	3	0	0	1500	4	15000	4	100000	4	0	0	181	3	0	0	1500	4	15000	4	100000	4	0	0
9799	Tsu	2011	3	11	5	46	24.1	30	9.1	9.1	8.3	7.2	0	0	0	0	JAPAN	0	JAPAN:  HONSHU	38.297	142.372	30	1475	4	0	0	6157	4	4401.709	4	2473	4	5618	4	18434	4	0	0	6157	4	220085.456	4	123661	4	280920	4
9801		2011	3	24	13	55	12	8	6.8	6.8	7.1	6.3	7.2	0	0	0	MYANMAR (BURMA)	0	MYANMAR:  TACHILEK	20.687	99.822	60	75	2	0	0	123	3	3.6	2	0	0	10104	4	75	2	0	0	123	3	3.6	2	0	0	10104	4
9858		2011	6	13	2	20	49.3	6	6	6	6	6	0	0	0	0	NEW ZEALAND	0	NEW ZEALAND:  SOUTH ISLAND:  CANTERBURY	-43.564	172.743	170	1	1	0	0	45	1	3000	4	100	2	0	0	1	1	0	0	45	1	3000	4	100	2	0	0
9842		2011	9	18	12	40	51.8	50	6.9	6.9	6.7	6.6	0	0	0	0	INDIA	0	INDIA:  SIKKIM	27.73	88.155	60	111	3	0	0	177	3	22.3	3	6000	4	6000	4	111	3	0	0	177	3	22.3	3	0	4	6000	4
9845		2011	10	23	10	41	22.9	16	7.1	7.1	7.3	6.9	0	0	0	0	TURKEY	0	"TURKEY:  ERCIS, VAN"	38.722	43.513	140	604	3	0	0	2608	4	1500	4	5739	4	4882	4	604	3	0	0	2608	4	1500	4	5739	4	4882	4
9870		2012	2	6	3	49	12.5	11	6.7	6.7	6.6	6.3	0	0	0	0	PHILIPPINES	0	PHILIPPINES:  NEGROS ORIENTAL PROVINCE	9.999	123.206	170	51	2	62	2	112	3	15	3	15000	4	0	0	51	2	62	2	112	3	15	3	15000	4	0	0
9901		2012	5	29	7	0	3	10	5.9	5.9	5.8	5.9	0	0	0	0	ITALY	0	"ITALY:  EMILIA ROMAGNA:  MEDOLLA, MIRANDOLA, CAVEZZO"	44.851	11.086	130	17	1	0	0	350	3	15800	4	0	0	0	0	17	1	0	0	350	3	15800	4	0	0	0	0
9935	Tsu	2012	8	31	12	47	33.3	28	7.6	7.6	7.6	7.2	0	0	0	0	PHILIPPINES	0	"PHILIPPINES:  CAGAYAN DE ORO, TACLOBAN"	10.811	126.638	170	1	1	0	0	1	1	0.3	1	0	1	0	0	1	1	0	0	1	1	0.3	1	0	1	0	0
9937		2012	9	7	3	19	42.5	10	5.6	5.6	5.4	5.6	0	0	0	0	CHINA	0	CHINA: YUNNAN PROVINCE:  ZHAOTONG:  YILIANG	27.575	103.983	30	81	2	0	0	821	3	1000	4	37000	4	133000	4	81	2	0	0	821	3	1000	4	37000	4	133000	4
9975		2013	3	27	2	3	19.8	19	6	6	5.8	5.8	0	0	0	0	TAIWAN	0	"TAIWAN:  NANTOU COUNTY, TAIPEI"	23.828	121.215	30	1	1	0	0	86	2	1.128	2	0	0	0	3	1	1	0	0	86	2	1.128	2	0	0	0	3
10036		2013	4	18	0	50	38.5	0	2.1	0	0	2.1	0	0	0	0	USA	0	TEXAS:  WEST	31.817	-97.088	150	14	1	0	0	200	3	100	4	50	1	0	0	14	1	0	0	200	3	100	4	50	1	0	0
9991		2013	5	1	6	57	13.4	15	5.7	5.7	5.6	5.6	0	0	0	0	INDIA	0	"INDIA:  KASHMIR:  DODA, KISHTWAR, RAMBAN"	33.061	75.863	60	3	1	0	0	90	2	19.5	3	1136	4	95532	4	3	1	0	0	90	2	19.5	3	1136	4	95532	4
10018		2013	7	21	23	45	56.6	8	6	6	6.2	6.1	0	0	0	0	CHINA	0	"CHINA:   GANSU:  DINGXI, MIN"	34.512	104.262	30	94	2	5	1	1001	4	1968	4	0	4	22496	4	94	2	5	1	1001	4	0	4	1968	4	22496	4
10048		2013	10	15	0	12	5	19	7.1	7.1	0	0	0	0	0	7	PHILIPPINES	0	"PHILIPPINES:  BOHOL, CEBU, SIQUIJOR IS"	9.88	124.117	170	222	3	8	1	976	3	51.8	4	0	4	0	4	222	3	8	1	976	3	51.8	4	0	4	0	4
10079	Tsu	2014	4	1	23	46	26	25	8.2	8.2	0	0	0	0	0	8	CHILE	0	"CHILE:  NORTHERN:  IQUIQUE, ALTO HOSPICIO"	-19.61	-70.769	160	7	1	0	0	0	0	100	4	0	0	2600	4	7	1	0	0	0	0	100	4	0	0	2600	4
10083		2014	4	10	23	27	6	13	6.1	6.1	0	0	0	0	0	0	NICARAGUA	0	"NICARAGUA:  NAGAROTE, MANAGUA"	12.403	-86.378	100	2	1	0	0	250	3	3	2	168	3	2210	4	2	1	0	0	250	3	3	2	168	3	2210	4
10093		2014	5	5	11	8	42	6	6.1	6.1	0	0	0	0	0	5	THAILAND	0	THAILAND:  CHIANG RAI	19.656	99.67	60	1	1	0	0	32	1	62	4	20	1	0	3	1	1	0	0	32	1	62	4	20	1	0	3
10096		2014	5	24	9	25	5	23	6.9	6.9	0	0	0	0	0	6	GREECE	0	"GREECE, TURKEY"	40.24	25.33	130	3	1	0	0	266	3	450	4	0	0	0	2	3	1	0	0	266	3	4500	4	0	0	0	2
10110		2014	8	24	10	20	6	11	6.1	6.1	0	0	0	0	0	8	USA	CA	"CALIFORNIA:  NAPA, VALLEJO"	38.216	-122.312	150	1	1	0	0	257	3	700	4	160	3	1034	4	1	1	0	0	257	3	700	4	160	3	1034	4
10134		2015	4	25	6	12	35	8	7.8	7.8	0	0	0	0	0	8	NEPAL	0	NEPAL:   KATHMANDU; INDIA; CHINA; BANGLADESH	28.231	84.731	60	8200	4	366	3	17866	4	10000	4	299588	4	269107	4	8200	4	366	3	17866	4	10000	4	299588	4	269107	4
10156	Tsu	2015	9	16	22	55	26	22	8.3	8.3	0	0	0	0	0	9	CHILE	0	CHILE:  CENTRAL	-31.573	-71.674	160	7	1	1	1	14	1	600	4	2305	4	10044	4	15	1	1	1	14	1	600	4	2305	4	10044	4
10159		2015	10	26	9	9	56	231	7.5	7.5	0	0	0	0	0	7	AFGHANISTAN	0	AFGHANISTAN: HINDU KUSH	36.524	70.368	40	399	3	0	0	1770	4	109	4	29230	4	79893	4	399	3	0	0	1770	4	109	4	29230	4	79893	4
10168		2015	12	7	7	51	35	22	7.2	7.2	0	0	0	0	0	3	TAJIKISTAN	0	TAJIKISTAN	38.211	72.78	40	2	1	0	0	0	3	5	2	500	3	0	3	2	1	0	0	0	3	5	2	500	3	0	3
10170		2016	1	3	23	5	27	55	6.7	6.7	0	0	0	0	0	7	INDIA	0	INDIA:  IMPAHL	24.804	93.651	60	13	1	0	0	100	2	75	4	0	0	0	2	13	1	0	0	100	2	75	4	0	0	0	2
10174		2016	2	5	19	57	6	10	6.4	6.4	0	0	0	0	0	7	TAIWAN	0	TAIWAN:  TAINAN	22.97	120.46	30	117	3	0	0	525	3	700	4	0	1	0	1	117	3	0	0	525	3	700	4	0	1	0	1
10177		2016	4	15	16	25	22	10	7	7	0	0	0	0	0	8	JAPAN	0	"JAPAN:  KUMAMOTO, OITA"	32.791	130.754	30	50	1	0	0	1500	4	20000	4	80000	4	0	0	50	1	0	0	1500	4	20000	4	80000	4	0	0
10176	Tsu	2016	4	16	23	58	    	17	7.8	7.8	0	0	0	0	0	8	ECUADOR	0	"ECUADOR:  NEAR WEST COAST: MANABI, ESMERALDAS"	0.35	-80.16	160	663	3	9	1	6274	4	3300	4	6998	4	29672	4	663	3	9	1	6274	4	3300	4	6998	4	29672	4
10194		2016	8	24	1	36	2	4	6.2	6.2	0	0	0	0	0	9	ITALY	0	"ITALY:  ACCUMOLI, ARQUATA, AMATRICE"	42.704	13.238	130	299	3	15	1	368	3	5000	4	0	3	0	2	299	3	15	1	368	3	5000	4	0	3	0	2
10195		2016	8	24	10	34	58	82	6.8	6.8	0	0	0	0	0	5	MYANMAR (BURMA)	0	MYANMAR (BURMA): CHAUK	20.923	94.569	60	4	1	0	0	20	1	10	3	0	0	230	3	4	1	0	0	20	1	10	3	0	0	230	2
10197		2016	9	10	12	27	41	40	5.9	5.9	0	0	0	0	0	0	TANZANIA	0	TANZANIA:  LAKE VICTORIA;  UGANDA: RAKAI	-1.036	31.618	10	23	1	0	0	252	3	458	4	1172	4	6281	4	23	1	0	0	252	3	458	4	1172	4	6281	4
10199		2016	9	12	11	33	17	13	5.4	5.4	0	0	0	0	0	6	SOUTH KOREA	0	SOUTH KOREA:  GYEONGJU	35.781	129.216	30	1	1	0	0	14	1	21	3	0	0	106	3	1	1	0	0	14	1	21	3	0	0	106	3
10202		2016	10	30	6	40	5	9	6.6	6.6	0	0	0	0	0	7	ITALY	0	ITALY: NORCIA	42.84	13.11	130	2	1	0	0	20	1	200	4	0	1	0	4	2	1	0	0	20	1	200	4	0	1	0	4
10386		2016	11	25	14	25	11	17	6.6	6.6	0	0	0	0	0	7	CHINA	0	CHINA:  XINJIANG PROVINCE:  KASHGAR	39.273	73.978	40	1	1	0	0	0	0	5.5	3	0	2	0	0	1	1	0	0	0	0	5.5	3	0	2	0	0
10215		2016	12	6	22	3	39	13	6.5	6.5	0	0	0	0	0	8	INDONESIA	0	INDONESIA:  SUMATRA:  ACEH:  PIDIE JAYA	5.283	96.168	60	104	3	0	0	857	3	100	4	245	3	18752	4	104	3	0	0	857	3	100	4	245	3	18752	4
10380		2016	12	8	5	15	6	18	6	6	0	0	0	0	0	3	CHINA	0	CHINA:  N. XINJIANG:  URUMQI	43.823	86.345	40	1	1	0	0	0	0	135	4	0	0	0	0	1	1	0	0	0	0	135	4	0	0	0	0
10258		2017	7	6	8	3	57	7	6.5	6.5	0	0	0	0	0	0	PHILIPPINES	0	PHILIPPINES: LEYTE	11.114	124.633	170	3	1	0	0	448	3	4.3	2	0	1	0	1	3	1	0	0	448	3	4.3	2	0	1	0	1
10261		2017	8	8	13	19	49	9	6.5	6.5	0	0	0	0	0	0	CHINA	0	CHINA:  SICHUAN PROVINCE:  ABA	33.193	103.855	30	25	1	0	0	525	3	500	4	100	2	72500	4	25	1	0	0	525	3	500	4	100	2	72500	4
10266	Tsu	2017	9	8	4	49	19	47	8.2	8.2	0	0	0	0	0	0	MEXICO	0	"MEXICO: OAXACA, CHIAPAS, TABASCO; GUATEMALA"	15.022	-93.899	150	98	2	0	0	0	3	2300	4	5000	4	53152	4	98	2	0	0	0	3	2300	4	5000	4	53152	4
10267		2017	9	19	18	14	39	51	7.1	7.1	0	0	0	0	0	0	MEXICO	0	"MEXICO: MEXICO CITY, MORELOS, PUEBLA"	18.584	-98.399	150	369	3	0	0	0	3	6000	4	226	3	27792	4	369	3	0	0	0	3	6000	4	226	3	27792	4
10275		2017	11	12	18	18	17	23	7.3	7.3	0	0	0	0	0	0	IRAN	0	IRAN: KERMANSHAH; IRAQ: KURDISTAN	34.886	45.941	140	630	3	0	0	12900	4	750	4	15500	4	14500	4	630	3	0	0	12900	4	750	4	15500	4	14500	4
10307		2018	2	25	17	44	43	23	7.5	7.5	0	0	0	0	0	8	PAPUA NEW GUINEA	0	"PAPUA NEW GUINEA: S HIGHLANDS, HELA;  INDONESIA"	-6.068	142.768	170	145	3	0	0	300	3	61	4	0	4	0	4	145	3	0	0	300	3	61	4	0	4	0	4
10351	Tsu	2018	8	5	11	46	37	31	6.9	6.9	0	0	0	0	0	0	INDONESIA	0	INDONESIA:  LOMBOK ISLAND	-8.287	116.452	60	560	3	0	0	7733	4	509	4	0	3	83392	4	560	3	0	0	7733	4	509	4	0	3	83392	4
10360		2018	9	5	18	7	58	33	6.6	6.6	0	0	0	0	0	0	JAPAN	0	JAPAN:  HOKKAIDO	42.671	141.933	30	44	1	0	0	660	3	350	4	0	1	0	1	44	1	0	0	660	3	350	4	0	1	0	1
10369	Tsu	2018	9	28	10	2	43	10	7.5	7.5	0	0	0	0	0	8	INDONESIA	0	INDONESIA:  SULAWESI	-0.178	119.84	170	2256	4	1309	4	4612	4	912	4	5864	4	69483	4	2256	4	1309	4	4612	4	912	4	5864	4	69483	4
10395		2019	2	25	5	15	59	10	4.9	0	0	4.9	0	0	0	0	CHINA	0	CHINA:  SICHUAN PROVINCE: RONGXIAN	29.498	104.632	30	2	1	0	0	12	1	2	2	9	1	10911	4	2	1	0	0	12	1	2	2	9	1	10911	4